category,sub_category,name,lat,lon,address,phone,operator,source_type,source_id,data_source
transport,bus_stop,4공단(현진아파트방면),36.13721741,128.4295512,,,,gumi_opendata_xlsx,1,gumi_opendata
transport,bus_stop,4공단(우미린더스카이건너방면),36.136961,128.429585,,,,gumi_opendata_xlsx,2,gumi_opendata
transport,bus_stop,4공단입구건너(인동농협옥계지점),36.13781552,128.4173574,,,,gumi_opendata_xlsx,3,gumi_opendata
transport,bus_stop,거상빌딩,36.13604604,128.4170425,,,,gumi_opendata_xlsx,4,gumi_opendata
transport,bus_stop,4공단입구(옥계방면),36.13773879,128.4177662,,,,gumi_opendata_xlsx,5,gumi_opendata
transport,bus_stop,우미린더스카이앞,36.13798257,128.4328294,,,,gumi_opendata_xlsx,6,gumi_opendata
transport,bus_stop,우미린더스카이건너,36.13755772,128.4323692,,,,gumi_opendata_xlsx,7,gumi_opendata
transport,bus_stop,가네골(백자리방면),36.2466128,128.2227179,,,,gumi_opendata_xlsx,8,gumi_opendata
transport,bus_stop,가네골(무이리방면),36.24665519,128.2228187,,,,gumi_opendata_xlsx,9,gumi_opendata
transport,bus_stop,가라골건너,36.13232491,128.4305447,,,,gumi_opendata_xlsx,10,gumi_opendata
transport,bus_stop,가라골앞,36.13222655,128.4302274,,,,gumi_opendata_xlsx,11,gumi_opendata
transport,bus_stop,가산1리(가산리방면),36.32980587,128.2982164,,,,gumi_opendata_xlsx,12,gumi_opendata
transport,bus_stop,가산1리(용산리방면),36.32993268,128.2983486,,,,gumi_opendata_xlsx,13,gumi_opendata
transport,bus_stop,가산리,36.3185676,128.2969288,,,,gumi_opendata_xlsx,14,gumi_opendata
transport,bus_stop,강동병원앞,36.09574398,128.423873,,,,gumi_opendata_xlsx,16,gumi_opendata
transport,bus_stop,강정(봉한2리방면),36.19232255,128.3604799,,,,gumi_opendata_xlsx,17,gumi_opendata
transport,bus_stop,강정(해평버스정류장방면),36.19240874,128.3606309,,,,gumi_opendata_xlsx,18,gumi_opendata
transport,bus_stop,경남아너스빌건너,36.16064024,128.3438951,,,,gumi_opendata_xlsx,19,gumi_opendata
transport,bus_stop,경남아너스빌앞,36.16076243,128.3444044,,,,gumi_opendata_xlsx,20,gumi_opendata
transport,bus_stop,경북외고앞,36.12337865,128.3236299,,,,gumi_opendata_xlsx,21,gumi_opendata
transport,bus_stop,경북외고건너,36.12340713,128.3244933,,,,gumi_opendata_xlsx,22,gumi_opendata
transport,bus_stop,경운대학교입구(교외방면),36.16240128,128.4664116,,,,gumi_opendata_xlsx,23,gumi_opendata
transport,bus_stop,경운대학교입구건너,36.16205471,128.467186,,,,gumi_opendata_xlsx,24,gumi_opendata
transport,bus_stop,경운대학교입구(교내방면),36.16234222,128.4666999,,,,gumi_opendata_xlsx,25,gumi_opendata
transport,bus_stop,경운대학교,36.16706214,128.4677203,,,,gumi_opendata_xlsx,26,gumi_opendata
transport,bus_stop,고려병원삼거리(지산1동방면),36.12641232,128.3456269,,,,gumi_opendata_xlsx,27,gumi_opendata
transport,bus_stop,고려병원삼거리(구미종합터미널방면),36.12701593,128.3438231,,,,gumi_opendata_xlsx,28,gumi_opendata
transport,bus_stop,고려병원앞,36.12601212,128.344653,,,,gumi_opendata_xlsx,29,gumi_opendata
transport,bus_stop,고아농공단지건너,36.21264769,128.3248786,,,,gumi_opendata_xlsx,30,gumi_opendata
transport,bus_stop,고아농공단지앞,36.21325735,128.3243276,,,,gumi_opendata_xlsx,31,gumi_opendata
transport,bus_stop,낙동강부대앞,36.16965013,128.3541926,,,,gumi_opendata_xlsx,32,gumi_opendata
transport,bus_stop,낙동강부대건너,36.16987051,128.3543317,,,,gumi_opendata_xlsx,33,gumi_opendata
transport,bus_stop,고아신촌(횡산입구방면),36.20174602,128.2965009,,,,gumi_opendata_xlsx,34,gumi_opendata
transport,bus_stop,고아신촌(파산리방면),36.20165466,128.2963519,,,,gumi_opendata_xlsx,35,gumi_opendata
transport,bus_stop,고아에덴아파트건너,36.22514058,128.3102317,,,,gumi_opendata_xlsx,36,gumi_opendata
transport,bus_stop,고아에덴아파트앞,36.22483159,128.3108658,,,,gumi_opendata_xlsx,37,gumi_opendata
transport,bus_stop,고아읍행정복지센터건너,36.21134824,128.3267911,,,,gumi_opendata_xlsx,38,gumi_opendata
transport,bus_stop,고아초등학교앞,36.2115131,128.3270058,,,,gumi_opendata_xlsx,39,gumi_opendata
transport,bus_stop,고아정류장,36.20899211,128.3295711,,,,gumi_opendata_xlsx,40,gumi_opendata
transport,bus_stop,고아읍행정복지센터앞,36.20984276,128.3293266,,,,gumi_opendata_xlsx,41,gumi_opendata
transport,bus_stop,파라디아A건너,36.10386082,128.3818761,,,,gumi_opendata_xlsx,42,gumi_opendata
transport,bus_stop,파라디아A앞,36.10349121,128.3822055,,,,gumi_opendata_xlsx,43,gumi_opendata
transport,bus_stop,공단3주공건너,36.10593385,128.3819002,,,,gumi_opendata_xlsx,44,gumi_opendata
transport,bus_stop,공단3주공앞,36.10602223,128.3821894,,,,gumi_opendata_xlsx,45,gumi_opendata
transport,bus_stop,공단본부앞,36.11108779,128.3790454,,,,gumi_opendata_xlsx,46,gumi_opendata
transport,bus_stop,공단본부건너,36.11076986,128.3767944,,,,gumi_opendata_xlsx,47,gumi_opendata
transport,bus_stop,광명빌딩앞,36.10639426,128.3634671,,,,gumi_opendata_xlsx,48,gumi_opendata
transport,bus_stop,광평동노인회관,36.10686192,128.3663258,,,,gumi_opendata_xlsx,49,gumi_opendata
transport,bus_stop,광평동행정복지센터앞,36.10383399,128.366344,,,,gumi_opendata_xlsx,50,gumi_opendata
transport,bus_stop,광평동행정복지센터건너,36.10384492,128.3665492,,,,gumi_opendata_xlsx,51,gumi_opendata
transport,bus_stop,광평동푸르지오아파트앞,36.1021251,128.3656498,,,,gumi_opendata_xlsx,52,gumi_opendata
transport,bus_stop,광평동푸르지오아파트건너,36.10196117,128.3648717,,,,gumi_opendata_xlsx,53,gumi_opendata
transport,bus_stop,괴곡1리(괴곡3거리방면),36.17264163,128.4134956,,,,gumi_opendata_xlsx,54,gumi_opendata
transport,bus_stop,괴곡1리(괴곡2리방면),36.1727656,128.413456,,,,gumi_opendata_xlsx,55,gumi_opendata
transport,bus_stop,괴곡2리(괴곡1리방면),36.17740948,128.4081792,,,,gumi_opendata_xlsx,56,gumi_opendata
transport,bus_stop,괴곡2리(문양리방면),36.17770862,128.4080171,,,,gumi_opendata_xlsx,57,gumi_opendata
transport,bus_stop,괴곡3거리,36.16706951,128.415797,,,,gumi_opendata_xlsx,58,gumi_opendata
transport,bus_stop,괴곡3거리(괴곡1리방면),36.16834425,128.4153566,,,,gumi_opendata_xlsx,60,gumi_opendata
transport,bus_stop,괴평,36.17130735,128.3726668,,,,gumi_opendata_xlsx,61,gumi_opendata
transport,bus_stop,괴평무지개아파트건너,36.16966569,128.3675856,,,,gumi_opendata_xlsx,62,gumi_opendata
transport,bus_stop,괴평무지개아파트앞,36.16895773,128.3677771,,,,gumi_opendata_xlsx,63,gumi_opendata
transport,bus_stop,송천4리입구,36.14921124,128.2835441,,,,gumi_opendata_xlsx,64,gumi_opendata
transport,bus_stop,구미대학교앞,36.14881246,128.289086,,,,gumi_opendata_xlsx,65,gumi_opendata
transport,bus_stop,송천4리입구건너,36.14925036,128.283611,,,,gumi_opendata_xlsx,66,gumi_opendata
transport,bus_stop,구미대학교건너,36.14970546,128.2863379,,,,gumi_opendata_xlsx,67,gumi_opendata
transport,bus_stop,구미남고앞,36.1374931,128.3324294,,,,gumi_opendata_xlsx,68,gumi_opendata
transport,bus_stop,구미남고건너,36.13790165,128.3321461,,,,gumi_opendata_xlsx,69,gumi_opendata
transport,bus_stop,구미레미콘건너,36.0881293,128.4105021,,,,gumi_opendata_xlsx,70,gumi_opendata
transport,bus_stop,구미레미콘앞,36.08782024,128.4107811,,,,gumi_opendata_xlsx,71,gumi_opendata
transport,bus_stop,축산물 유통센터건너,36.13029239,128.309179,,,,gumi_opendata_xlsx,72,gumi_opendata
transport,bus_stop,구미가톨릭요양병원,36.13469703,128.3349366,,,,gumi_opendata_xlsx,73,gumi_opendata
transport,bus_stop,구미세무서앞,36.11109129,128.3835073,,,,gumi_opendata_xlsx,74,gumi_opendata
transport,bus_stop,구미세무서건너,36.11077564,128.3830868,,,,gumi_opendata_xlsx,75,gumi_opendata
transport,bus_stop,구미여고,36.14460079,128.3311962,,,,gumi_opendata_xlsx,76,gumi_opendata
transport,bus_stop,구미여중건너,36.12374387,128.3267747,,,,gumi_opendata_xlsx,77,gumi_opendata
transport,bus_stop,구미여중앞,36.1239726,128.3267569,,,,gumi_opendata_xlsx,78,gumi_opendata
transport,bus_stop,구미역(중앙시장),36.12962183,128.3298341,,,,gumi_opendata_xlsx,79,gumi_opendata
transport,bus_stop,구미역,36.12963461,128.3293215,,,,gumi_opendata_xlsx,80,gumi_opendata
transport,bus_stop,구미역(김천행),36.130215,128.328432,,,,gumi_opendata_xlsx,81,gumi_opendata
transport,bus_stop,구미역(선산노선정류장),36.12953268,128.3295658,,,,gumi_opendata_xlsx,82,gumi_opendata
transport,bus_stop,구미원예공사건너,36.33052712,128.2759074,,,,gumi_opendata_xlsx,83,gumi_opendata
transport,bus_stop,구미원예공사앞,36.33012144,128.2760345,,,,gumi_opendata_xlsx,84,gumi_opendata
transport,bus_stop,구미전자공고입구,36.11118287,128.4040831,,,,gumi_opendata_xlsx,85,gumi_opendata
transport,bus_stop,구미전자정보기술원(청년창업랩),36.14083988,128.4402798,,,,gumi_opendata_xlsx,86,gumi_opendata
transport,bus_stop,구미정보여고건너,36.1092051,128.3418136,,,,gumi_opendata_xlsx,87,gumi_opendata
transport,bus_stop,구미정보여고,36.10885355,128.3414896,,,,gumi_opendata_xlsx,88,gumi_opendata
transport,bus_stop,구미종합터미널건너,36.12267599,128.3508489,,,,gumi_opendata_xlsx,89,gumi_opendata
transport,bus_stop,구미종합터미널안,36.12246136,128.3520152,,,,gumi_opendata_xlsx,90,gumi_opendata
transport,bus_stop,구미종합터미널앞,36.12252942,128.3510414,,,,gumi_opendata_xlsx,91,gumi_opendata
transport,bus_stop,오성예식장앞,36.12119339,128.351442,,,,gumi_opendata_xlsx,92,gumi_opendata
transport,bus_stop,구미중학교건너,36.14806354,128.3311099,,,,gumi_opendata_xlsx,93,gumi_opendata
transport,bus_stop,구미중학교앞,36.14739747,128.3308222,,,,gumi_opendata_xlsx,94,gumi_opendata
transport,bus_stop,구봉리(옥관입구방면),36.34671204,128.2769559,,,,gumi_opendata_xlsx,95,gumi_opendata
transport,bus_stop,구봉리(낙동출발방면),36.3466227,128.276969,,,,gumi_opendata_xlsx,96,gumi_opendata
transport,bus_stop,구운초등학교건너(괴평방면),36.17009572,128.3696456,,,,gumi_opendata_xlsx,97,gumi_opendata
transport,bus_stop,구운초등학교건너(다식수도가압장방면),36.17001689,128.3692688,,,,gumi_opendata_xlsx,98,gumi_opendata
transport,bus_stop,구운초등학교앞,36.17020151,128.3694523,,,,gumi_opendata_xlsx,99,gumi_opendata
transport,bus_stop,구평 부영2단지,36.09308318,128.4422341,,,,gumi_opendata_xlsx,100,gumi_opendata
transport,bus_stop,구평 부영7단지,36.08972865,128.4360943,,,,gumi_opendata_xlsx,101,gumi_opendata
transport,bus_stop,구평 부영8단지,36.08952861,128.4403586,,,,gumi_opendata_xlsx,102,gumi_opendata
transport,bus_stop,구평1동(구평부영2단지방면),36.09019366,128.4427479,,,,gumi_opendata_xlsx,103,gumi_opendata
transport,bus_stop,구평1동(구평1동불바위방면),36.09283595,128.4412559,,,,gumi_opendata_xlsx,104,gumi_opendata
transport,bus_stop,구평예다음아파트2차,36.09277804,128.4456187,,,,gumi_opendata_xlsx,105,gumi_opendata
transport,bus_stop,구평1동불바위,36.09271095,128.4443001,,,,gumi_opendata_xlsx,106,gumi_opendata
transport,bus_stop,구평2동,36.09272585,128.4567755,,,,gumi_opendata_xlsx,107,gumi_opendata
transport,bus_stop,구평부영아파트(5단지앞),36.09313712,128.4376062,,,,gumi_opendata_xlsx,108,gumi_opendata
transport,bus_stop,구평부영아파트(1단지앞),36.09331537,128.4391225,,,,gumi_opendata_xlsx,109,gumi_opendata
transport,bus_stop,구평새월못,36.0930414,128.4565609,,,,gumi_opendata_xlsx,110,gumi_opendata
transport,bus_stop,구평초등학교앞,36.09219395,128.4520763,,,,gumi_opendata_xlsx,111,gumi_opendata
transport,bus_stop,구평초등학교건너,36.09253443,128.4511372,,,,gumi_opendata_xlsx,112,gumi_opendata
transport,bus_stop,구평예다음아파트A,36.09242002,128.4474588,,,,gumi_opendata_xlsx,113,gumi_opendata
transport,bus_stop,구포동(구포전원타운방면),36.13372181,128.4166271,,,,gumi_opendata_xlsx,115,gumi_opendata
transport,bus_stop,구포동(4공단입구방면),36.13372794,128.4170251,,,,gumi_opendata_xlsx,116,gumi_opendata
transport,bus_stop,구포전원타운건너,36.13135889,128.416191,,,,gumi_opendata_xlsx,117,gumi_opendata
transport,bus_stop,구포전원타운앞,36.13126127,128.4165332,,,,gumi_opendata_xlsx,118,gumi_opendata
transport,bus_stop,구미역 전(국민은행),36.12861582,128.3322865,,,,gumi_opendata_xlsx,119,gumi_opendata
transport,bus_stop,궁기2리(도개정류장방면),36.29963619,128.3393714,,,,gumi_opendata_xlsx,120,gumi_opendata
transport,bus_stop,궁기2리(궁기2리재궁방면),36.29955611,128.3392485,,,,gumi_opendata_xlsx,121,gumi_opendata
transport,bus_stop,궁기2리재궁앞,36.29461341,128.345928,,,,gumi_opendata_xlsx,122,gumi_opendata
transport,bus_stop,궁기2리재궁건너,36.29462835,128.3455647,,,,gumi_opendata_xlsx,123,gumi_opendata
transport,bus_stop,귀빈맨션(구미여고),36.14478695,128.330865,,,,gumi_opendata_xlsx,124,gumi_opendata
transport,bus_stop,금산,36.16469593,128.5216403,,,,gumi_opendata_xlsx,125,gumi_opendata
transport,bus_stop,금호1리(금호2리방면),36.21737538,128.3782985,,,,gumi_opendata_xlsx,126,gumi_opendata
transport,bus_stop,금호1리(송곡리방면),36.21772088,128.3783065,,,,gumi_opendata_xlsx,127,gumi_opendata
transport,bus_stop,금오고등학교입구,36.10905501,128.3567494,,,,gumi_opendata_xlsx,128,gumi_opendata
transport,bus_stop,금오고등학교입구건너,36.10888754,128.3570323,,,,gumi_opendata_xlsx,129,gumi_opendata
transport,bus_stop,금오공대입구(금오공대종점방면),36.13929449,128.3971135,,,,gumi_opendata_xlsx,130,gumi_opendata
transport,bus_stop,금오공대입구(옥계중학교방면),36.13948442,128.3967393,,,,gumi_opendata_xlsx,131,gumi_opendata
transport,bus_stop,금오공대종점,36.14317057,128.3943957,,,,gumi_opendata_xlsx,132,gumi_opendata
transport,bus_stop,금오랜드앞,36.11352559,128.3153296,,,,gumi_opendata_xlsx,133,gumi_opendata
transport,bus_stop,금오산사거리,36.12688792,128.3358796,,,,gumi_opendata_xlsx,134,gumi_opendata
transport,bus_stop,금오산,36.11192455,128.3148489,,,,gumi_opendata_xlsx,135,gumi_opendata
transport,bus_stop,금오산출발,36.11247203,128.3149034,,,,gumi_opendata_xlsx,136,gumi_opendata
transport,bus_stop,원평동 행정복지 센터 앞,36.12581949,128.3388928,,,,gumi_opendata_xlsx,137,gumi_opendata
transport,bus_stop,금오시장 건너,36.12527783,128.339623,,,,gumi_opendata_xlsx,138,gumi_opendata
transport,bus_stop,금오여고앞,36.14204411,128.3465998,,,,gumi_opendata_xlsx,139,gumi_opendata
transport,bus_stop,금오여고건너,36.14103949,128.3468266,,,,gumi_opendata_xlsx,140,gumi_opendata
transport,bus_stop,원평119안전센터,36.12891423,128.3404408,,,,gumi_opendata_xlsx,141,gumi_opendata
transport,bus_stop,금오중학교건너,36.08662581,128.3701346,,,,gumi_opendata_xlsx,142,gumi_opendata
transport,bus_stop,금오중학교앞,36.08634556,128.3700859,,,,gumi_opendata_xlsx,143,gumi_opendata
transport,bus_stop,삼도뷰앤빌앞삼거리,36.08737995,128.3644345,,,,gumi_opendata_xlsx,144,gumi_opendata
transport,bus_stop,삼도뷰앤빌건너삼거리,36.08702075,128.363956,,,,gumi_opendata_xlsx,145,gumi_opendata
transport,bus_stop,금오초등학교건너,36.12518086,128.3344539,,,,gumi_opendata_xlsx,146,gumi_opendata
transport,bus_stop,금오초등학교앞,36.12490745,128.3344678,,,,gumi_opendata_xlsx,147,gumi_opendata
transport,bus_stop,금전동종점,36.12837479,128.4689116,,,,gumi_opendata_xlsx,148,gumi_opendata
transport,bus_stop,한국폴리텍대학건너,36.11660432,128.371527,,,,gumi_opendata_xlsx,149,gumi_opendata
transport,bus_stop,한국폴리텍대학앞,36.11778275,128.3719076,,,,gumi_opendata_xlsx,150,gumi_opendata
transport,bus_stop,김천(구미)역김천행,36.11389342,128.1813693,,,,gumi_opendata_xlsx,151,gumi_opendata
transport,bus_stop,낙산리(구미보방면),36.25361028,128.3497648,,,,gumi_opendata_xlsx,152,gumi_opendata
transport,bus_stop,낙산리(칠창방면),36.2532703,128.3497714,,,,gumi_opendata_xlsx,153,gumi_opendata
transport,bus_stop,남구미자동차학원건너,36.07928507,128.3535503,,,,gumi_opendata_xlsx,154,gumi_opendata
transport,bus_stop,남구미자동차학원앞,36.07942094,128.3539999,,,,gumi_opendata_xlsx,155,gumi_opendata
transport,bus_stop,내고1리입구앞,36.22611728,128.2780129,,,,gumi_opendata_xlsx,156,gumi_opendata
transport,bus_stop,내고1리입구건너,36.22600154,128.2780278,,,,gumi_opendata_xlsx,157,gumi_opendata
transport,bus_stop,내고리(북산2리방면),36.22597033,128.2644559,,,,gumi_opendata_xlsx,158,gumi_opendata
transport,bus_stop,내고리(내고1리입구방면),36.22577345,128.2645426,,,,gumi_opendata_xlsx,159,gumi_opendata
transport,bus_stop,LIG넥스원건너,36.11574551,128.3853548,,,,gumi_opendata_xlsx,160,gumi_opendata
transport,bus_stop,LIG넥스원앞,36.11576432,128.3855943,,,,gumi_opendata_xlsx,161,gumi_opendata
transport,bus_stop,효성티앤에스,36.12433277,128.4101815,,,,gumi_opendata_xlsx,162,gumi_opendata
transport,bus_stop,농산물도매시장앞,36.15638706,128.3518667,,,,gumi_opendata_xlsx,163,gumi_opendata
transport,bus_stop,농산물도매시장건너,36.15636663,128.3522145,,,,gumi_opendata_xlsx,164,gumi_opendata
transport,bus_stop,농소2리이곡(옥성방면),36.31356766,128.280516,,,,gumi_opendata_xlsx,165,gumi_opendata
transport,bus_stop,농소2리이곡(화훼단지주유소방면),36.31337,128.2805777,,,,gumi_opendata_xlsx,166,gumi_opendata
transport,bus_stop,농협,36.12802335,128.3331997,,,,gumi_opendata_xlsx,167,gumi_opendata
transport,bus_stop,농협파머스마켓,36.12156098,128.3528243,,,,gumi_opendata_xlsx,168,gumi_opendata
transport,bus_stop,오태늘푸른아파트,36.07180632,128.3493242,,,,gumi_opendata_xlsx,169,gumi_opendata
transport,bus_stop,다곡1리마을회관,36.28709505,128.3674101,,,,gumi_opendata_xlsx,170,gumi_opendata
transport,bus_stop,다곡다항(다곡1리마을회관방면),36.28282929,128.3763996,,,,gumi_opendata_xlsx,171,gumi_opendata
transport,bus_stop,다곡다항(땅재입구방면),36.28282929,128.3760059,,,,gumi_opendata_xlsx,172,gumi_opendata
transport,bus_stop,다곡리,36.2870427,128.3672795,,,,gumi_opendata_xlsx,173,gumi_opendata
transport,bus_stop,다식수도가압장(다식종점방면),36.16644983,128.3707605,,,,gumi_opendata_xlsx,174,gumi_opendata
transport,bus_stop,다식수도가압장(구운초등학교방면),36.16618869,128.370935,,,,gumi_opendata_xlsx,175,gumi_opendata
transport,bus_stop,다식종점,36.16484501,128.3709266,,,,gumi_opendata_xlsx,176,gumi_opendata
transport,bus_stop,대구은행앞,36.12718339,128.3356625,,,,gumi_opendata_xlsx,177,gumi_opendata
transport,bus_stop,대동3차아파트앞,36.07106949,128.3502876,,,,gumi_opendata_xlsx,178,gumi_opendata
transport,bus_stop,대동3차아파트건너,36.07090038,128.3508456,,,,gumi_opendata_xlsx,179,gumi_opendata
transport,bus_stop,대동아파트,36.07198502,128.350038,,,,gumi_opendata_xlsx,180,gumi_opendata
transport,bus_stop,옥계이편한세상APT앞,36.14032503,128.43737,,,,gumi_opendata_xlsx,181,gumi_opendata
transport,bus_stop,대망1리마을회관(대망출발방면),36.19754921,128.3162236,,,,gumi_opendata_xlsx,182,gumi_opendata
transport,bus_stop,대망1리마을회관(아포입구방면),36.19735598,128.3165757,,,,gumi_opendata_xlsx,183,gumi_opendata
transport,bus_stop,대망입구(대망1리마을회관방면),36.20900024,128.313071,,,,gumi_opendata_xlsx,184,gumi_opendata
transport,bus_stop,대망입구(오로삼거리방면),36.20917244,128.3128101,,,,gumi_opendata_xlsx,185,gumi_opendata
transport,bus_stop,대망2리마을회관건너,36.18253509,128.316003,,,,gumi_opendata_xlsx,186,gumi_opendata
transport,bus_stop,원호대우아파트앞,36.15304219,128.329198,,,,gumi_opendata_xlsx,187,gumi_opendata
transport,bus_stop,원호대우아파트건너,36.15303129,128.3290618,,,,gumi_opendata_xlsx,188,gumi_opendata
transport,bus_stop,태평양금속정문앞,36.09184851,128.3856204,,,,gumi_opendata_xlsx,189,gumi_opendata
transport,bus_stop,태평양금속정문건너,36.091613,128.3851973,,,,gumi_opendata_xlsx,190,gumi_opendata
transport,bus_stop,대우전자후문,36.09634007,128.3855722,,,,gumi_opendata_xlsx,191,gumi_opendata
transport,bus_stop,대원(선산휴게소밑방면),36.2831557,128.2356523,,,,gumi_opendata_xlsx,192,gumi_opendata
transport,bus_stop,대원(선산휴게소밑방면),36.28035952,128.2422651,,,,gumi_opendata_xlsx,193,gumi_opendata
transport,bus_stop,대원(태봉1리방면),36.28358156,128.2354675,,,,gumi_opendata_xlsx,194,gumi_opendata
transport,bus_stop,덕촌(봉곡방면),36.25889434,128.2542111,,,,gumi_opendata_xlsx,195,gumi_opendata
transport,bus_stop,덕촌(덕촌2리방면),36.25876385,128.2542853,,,,gumi_opendata_xlsx,196,gumi_opendata
transport,bus_stop,덕촌1리(포상2리하송방면),36.25182663,128.2506266,,,,gumi_opendata_xlsx,197,gumi_opendata
transport,bus_stop,덕촌1리(봉곡방면),36.25177373,128.2504142,,,,gumi_opendata_xlsx,198,gumi_opendata
transport,bus_stop,덕촌2리(덕촌방면),36.26905278,128.2512049,,,,gumi_opendata_xlsx,199,gumi_opendata
transport,bus_stop,덕촌2리(선산휴게소밑방면),36.26947211,128.2514571,,,,gumi_opendata_xlsx,200,gumi_opendata
transport,bus_stop,델코전지,36.11269785,128.4172576,,,,gumi_opendata_xlsx,201,gumi_opendata
transport,bus_stop,도개1리,36.28940809,128.3563963,,,,gumi_opendata_xlsx,202,gumi_opendata
transport,bus_stop,도개1리,36.28918602,128.3567508,,,,gumi_opendata_xlsx,203,gumi_opendata
transport,bus_stop,도개1리 금오산한과,36.28843187,128.3538414,,,,gumi_opendata_xlsx,204,gumi_opendata
transport,bus_stop,도개1리 금오산한과,36.28834162,128.3538277,,,,gumi_opendata_xlsx,205,gumi_opendata
transport,bus_stop,도개2리(신라불교초전지),36.28853303,128.3614511,,,,gumi_opendata_xlsx,206,gumi_opendata
transport,bus_stop,도개2리(신라불교초전지건너),36.28847396,128.3612394,,,,gumi_opendata_xlsx,207,gumi_opendata
transport,bus_stop,도개문화마을(월림2리한실방면),36.3019385,128.3297976,,,,gumi_opendata_xlsx,208,gumi_opendata
transport,bus_stop,도개문화마을(도개정류장방면),36.30225615,128.3295334,,,,gumi_opendata_xlsx,209,gumi_opendata
transport,bus_stop,도개정류장안,36.29914188,128.3317428,,,,gumi_opendata_xlsx,210,gumi_opendata
transport,bus_stop,도개정류장앞,36.29869256,128.3318457,,,,gumi_opendata_xlsx,211,gumi_opendata
transport,bus_stop,도량성당,36.1360007,128.3310614,,,,gumi_opendata_xlsx,212,gumi_opendata
transport,bus_stop,도량롯데캐슬,36.14201319,128.3320204,,,,gumi_opendata_xlsx,213,gumi_opendata
transport,bus_stop,도량2동(선주고등학교방면),36.1379493,128.3225421,,,,gumi_opendata_xlsx,214,gumi_opendata
transport,bus_stop,도량2동(미소지움아파트건너방면),36.13773999,128.3215169,,,,gumi_opendata_xlsx,215,gumi_opendata
transport,bus_stop,도량2동 4주공,36.14458945,128.3227787,,,,gumi_opendata_xlsx,216,gumi_opendata
transport,bus_stop,도량2동3주공,36.14464684,128.3225215,,,,gumi_opendata_xlsx,217,gumi_opendata
transport,bus_stop,도량2동입구(선기동교복단지건너방면),36.1338658,128.3217852,,,,gumi_opendata_xlsx,218,gumi_opendata
transport,bus_stop,도량2동입구(도량2동방면),36.13748928,128.3263682,,,,gumi_opendata_xlsx,219,gumi_opendata
transport,bus_stop,도량2동입구(원평2동행정복지센터방면),36.13369063,128.3219065,,,,gumi_opendata_xlsx,220,gumi_opendata
transport,bus_stop,도량2동입구(도량성당방면),36.13721159,128.3260604,,,,gumi_opendata_xlsx,221,gumi_opendata
transport,bus_stop,도량2동파크맨션앞,36.14767567,128.3236646,,,,gumi_opendata_xlsx,222,gumi_opendata
transport,bus_stop,도량2동파크맨션건너,36.14798548,128.3234039,,,,gumi_opendata_xlsx,223,gumi_opendata
transport,bus_stop,도량교(구미남고방면),36.13463238,128.3323547,,,,gumi_opendata_xlsx,224,gumi_opendata
transport,bus_stop,도량교(원평2동산업도로방면),36.13464166,128.3320885,,,,gumi_opendata_xlsx,225,gumi_opendata
transport,bus_stop,경북교육청도서관건너,36.12484127,128.3306554,,,,gumi_opendata_xlsx,226,gumi_opendata
transport,bus_stop,경북교육청도서관,36.12467624,128.3312078,,,,gumi_opendata_xlsx,227,gumi_opendata
transport,bus_stop,도문1리(도문2리방면),36.21704166,128.4184986,,,,gumi_opendata_xlsx,228,gumi_opendata
transport,bus_stop,도문1리(도문1리내미리방면),36.21704595,128.4186032,,,,gumi_opendata_xlsx,229,gumi_opendata
transport,bus_stop,도문1리내미리(도문1리방면),36.22488835,128.4262842,,,,gumi_opendata_xlsx,230,gumi_opendata
transport,bus_stop,도문1리내미리(칠풍입구방면),36.22483091,128.4263771,,,,gumi_opendata_xlsx,231,gumi_opendata
transport,bus_stop,도문2리(해평버스정류장방면),36.2106386,128.4071029,,,,gumi_opendata_xlsx,232,gumi_opendata
transport,bus_stop,도문2리(도문1리방면),36.21051921,128.4071049,,,,gumi_opendata_xlsx,233,gumi_opendata
transport,bus_stop,도봉초등학교앞,36.1416244,128.3154794,,,,gumi_opendata_xlsx,234,gumi_opendata
transport,bus_stop,도봉초등학교건너,36.14135984,128.315657,,,,gumi_opendata_xlsx,235,gumi_opendata
transport,bus_stop,도산초등학교,36.14124625,128.332365,,,,gumi_opendata_xlsx,236,gumi_opendata
transport,bus_stop,도중리,36.19477688,128.4350603,,,,gumi_opendata_xlsx,237,gumi_opendata
transport,bus_stop,독동리,36.24936269,128.3278062,,,,gumi_opendata_xlsx,238,gumi_opendata
transport,bus_stop,독동리,36.24933055,128.327999,,,,gumi_opendata_xlsx,239,gumi_opendata
transport,bus_stop,생곡리 원당마을,36.26075305,128.3293721,,,,gumi_opendata_xlsx,240,gumi_opendata
transport,bus_stop,생곡리 원당마을,36.26077715,128.3292436,,,,gumi_opendata_xlsx,241,gumi_opendata
transport,bus_stop,동국방직,36.09806083,128.3770611,,,,gumi_opendata_xlsx,242,gumi_opendata
transport,bus_stop,동락공원4주차장,36.09271861,128.4031528,,,,gumi_opendata_xlsx,243,gumi_opendata
transport,bus_stop,구미과학관,36.10222598,128.4018212,,,,gumi_opendata_xlsx,244,gumi_opendata
transport,bus_stop,동락공원입구,36.11085492,128.4038217,,,,gumi_opendata_xlsx,245,gumi_opendata
transport,bus_stop,팜한농앞,36.08369299,128.3840536,,,,gumi_opendata_xlsx,246,gumi_opendata
transport,bus_stop,팜한농건너,36.08338766,128.3840295,,,,gumi_opendata_xlsx,247,gumi_opendata
transport,bus_stop,동산리마을회관,36.33456267,128.330556,,,,gumi_opendata_xlsx,248,gumi_opendata
transport,bus_stop,동서전자건너,36.1422662,128.4479295,,,,gumi_opendata_xlsx,249,gumi_opendata
transport,bus_stop,동아백화점건너,36.12013148,128.3483332,,,,gumi_opendata_xlsx,250,gumi_opendata
transport,bus_stop,동아백화점앞,36.11983363,128.3483751,,,,gumi_opendata_xlsx,251,gumi_opendata
transport,bus_stop,동우그린파크,36.11660504,128.3360182,,,,gumi_opendata_xlsx,252,gumi_opendata
transport,bus_stop,적림구미마을건너,36.16697197,128.4254724,,,,gumi_opendata_xlsx,253,gumi_opendata
transport,bus_stop,땅재(수철방면),36.26901714,128.4151926,,,,gumi_opendata_xlsx,254,gumi_opendata
transport,bus_stop,땅재(달산2리방면),36.26886448,128.4148149,,,,gumi_opendata_xlsx,255,gumi_opendata
transport,bus_stop,신화촌(다곡다항방면),36.27665842,128.3934338,,,,gumi_opendata_xlsx,256,gumi_opendata
transport,bus_stop,신화촌(수철방면),36.27648165,128.3932776,,,,gumi_opendata_xlsx,257,gumi_opendata
transport,bus_stop,럭키원앙아파트,36.13636262,128.3307191,,,,gumi_opendata_xlsx,258,gumi_opendata
transport,bus_stop,롯데마트건너,36.11409104,128.3632289,,,,gumi_opendata_xlsx,259,gumi_opendata
transport,bus_stop,롯데마트앞,36.11334734,128.3640135,,,,gumi_opendata_xlsx,260,gumi_opendata
transport,bus_stop,괴평3리마을회관,36.14207117,128.3627783,,,,gumi_opendata_xlsx,261,gumi_opendata
transport,bus_stop,LG디스플레이정문,36.11080917,128.4068363,,,,gumi_opendata_xlsx,262,gumi_opendata
transport,bus_stop,명곡종점,36.12509875,128.5433142,,,,gumi_opendata_xlsx,263,gumi_opendata
transport,bus_stop,무등1리노인회관,36.25672157,128.1753761,,,,gumi_opendata_xlsx,264,gumi_opendata
transport,bus_stop,무등2리(오가3리 무등1리방면),36.2633181,128.1864918,,,,gumi_opendata_xlsx,265,gumi_opendata
transport,bus_stop,무등2리(무을정류장방면),36.26307067,128.1862186,,,,gumi_opendata_xlsx,266,gumi_opendata
transport,bus_stop,무을면행정복지센터앞,36.26068471,128.1975238,,,,gumi_opendata_xlsx,267,gumi_opendata
transport,bus_stop,무을면행정복지센터건너,36.26047887,128.1970337,,,,gumi_opendata_xlsx,268,gumi_opendata
transport,bus_stop,무을원동,36.24713275,128.2061775,,,,gumi_opendata_xlsx,269,gumi_opendata
transport,bus_stop,무을정류장(새마을금고건너),36.26157223,128.193667,,,,gumi_opendata_xlsx,270,gumi_opendata
transport,bus_stop,무을정류장(새마을금고앞),36.26135251,128.1933265,,,,gumi_opendata_xlsx,271,gumi_opendata
transport,bus_stop,무이리(송삼2리방면),36.25439547,128.2228004,,,,gumi_opendata_xlsx,272,gumi_opendata
transport,bus_stop,무이리(가네골방면),36.25462813,128.2226116,,,,gumi_opendata_xlsx,273,gumi_opendata
transport,bus_stop,무이리(웅곡리방면),36.25442664,128.2225534,,,,gumi_opendata_xlsx,274,gumi_opendata
transport,bus_stop,무이리 물골안,36.25987112,128.2200007,,,,gumi_opendata_xlsx,275,gumi_opendata
transport,bus_stop,묵어2리(하장3거리방면),36.14416619,128.5236164,,,,gumi_opendata_xlsx,276,gumi_opendata
transport,bus_stop,묵어2리(묵어리종점방면),36.1441208,128.5235341,,,,gumi_opendata_xlsx,277,gumi_opendata
transport,bus_stop,묵어리(하장3거리방면),36.14118941,128.4894718,,,,gumi_opendata_xlsx,278,gumi_opendata
transport,bus_stop,묵어리(상림리입구방면),36.14100787,128.4895978,,,,gumi_opendata_xlsx,279,gumi_opendata
transport,bus_stop,묵어리종점,36.14105306,128.5375543,,,,gumi_opendata_xlsx,280,gumi_opendata
transport,bus_stop,문량리(괴곡2리방면),36.18253371,128.3982451,,,,gumi_opendata_xlsx,281,gumi_opendata
transport,bus_stop,문량리(괴곡리방면),36.18042957,128.4004772,,,,gumi_opendata_xlsx,282,gumi_opendata
transport,bus_stop,문량리(오상리방면),36.18257178,128.3983206,,,,gumi_opendata_xlsx,283,gumi_opendata
transport,bus_stop,고아세영리첼아파트건너,36.1579055,128.3388849,,,,gumi_opendata_xlsx,284,gumi_opendata
transport,bus_stop,고아세영리첼아파트앞,36.15809159,128.3387223,,,,gumi_opendata_xlsx,285,gumi_opendata
transport,bus_stop,문성3리(농산물도매시장방면),36.16068971,128.3528552,,,,gumi_opendata_xlsx,286,gumi_opendata
transport,bus_stop,문성3리(낙동강부대건너방면),36.16127932,128.3533449,,,,gumi_opendata_xlsx,287,gumi_opendata
transport,bus_stop,문성새마을(지산2동방면),36.15016864,128.3496392,,,,gumi_opendata_xlsx,288,gumi_opendata
transport,bus_stop,문성새마을(농산물도매시장방면),36.1503062,128.3499926,,,,gumi_opendata_xlsx,289,gumi_opendata
transport,bus_stop,송림네거리(송림방면),36.16326848,128.3550472,,,,gumi_opendata_xlsx,290,gumi_opendata
transport,bus_stop,문성지구 출발,36.16358661,128.3554915,,,,gumi_opendata_xlsx,291,gumi_opendata
transport,bus_stop,문화예술회관후문건너,36.11912765,128.3490304,,,,gumi_opendata_xlsx,292,gumi_opendata
transport,bus_stop,문화예술회관후문앞,36.11872169,128.3494364,,,,gumi_opendata_xlsx,293,gumi_opendata
transport,bus_stop,미광아파트건너,36.1310791,128.3212225,,,,gumi_opendata_xlsx,294,gumi_opendata
transport,bus_stop,미광아파트앞,36.13099921,128.3214888,,,,gumi_opendata_xlsx,295,gumi_opendata
transport,bus_stop,미성빌라,36.11638122,128.3363652,,,,gumi_opendata_xlsx,296,gumi_opendata
transport,bus_stop,외예리(새터방면),36.18361847,128.2823801,,,,gumi_opendata_xlsx,297,gumi_opendata
transport,bus_stop,외예리(내예리방면),36.18351668,128.2824195,,,,gumi_opendata_xlsx,298,gumi_opendata
transport,bus_stop,박정희대통령생가건너,36.08805222,128.350419,,,,gumi_opendata_xlsx,299,gumi_opendata
transport,bus_stop,상모동신빌라트앞,36.08945612,128.3544822,,,,gumi_opendata_xlsx,300,gumi_opendata
transport,bus_stop,상모경로당앞,36.08931286,128.3546454,,,,gumi_opendata_xlsx,301,gumi_opendata
transport,bus_stop,박정희대통령생가앞,36.08811301,128.3500675,,,,gumi_opendata_xlsx,302,gumi_opendata
transport,bus_stop,반석드림빌건너,36.11629523,128.3440576,,,,gumi_opendata_xlsx,303,gumi_opendata
transport,bus_stop,반석드림빌앞,36.11616004,128.3440683,,,,gumi_opendata_xlsx,304,gumi_opendata
transport,bus_stop,백자리(마을회관건너),36.24513523,128.2278816,,,,gumi_opendata_xlsx,305,gumi_opendata
transport,bus_stop,백자리(마을회관앞),36.24523962,128.2279176,,,,gumi_opendata_xlsx,306,gumi_opendata
transport,bus_stop,백현리동초식당,36.20598779,128.4704248,,,,gumi_opendata_xlsx,307,gumi_opendata
transport,bus_stop,백현리동초식당건너,36.20579495,128.4705775,,,,gumi_opendata_xlsx,308,gumi_opendata
transport,bus_stop,백현리(백현2리붓돌방면),36.20779358,128.4724374,,,,gumi_opendata_xlsx,309,gumi_opendata
transport,bus_stop,백현리(송산리정실방면),36.20764884,128.4730206,,,,gumi_opendata_xlsx,310,gumi_opendata
transport,bus_stop,벽산아파트,36.12261961,128.3793104,,,,gumi_opendata_xlsx,311,gumi_opendata
transport,bus_stop,보성황실2차아파트정문건너,36.10096187,128.3599859,,,,gumi_opendata_xlsx,312,gumi_opendata
transport,bus_stop,보성황실2차아파트(사곡동방면),36.10178549,128.3590596,,,,gumi_opendata_xlsx,313,gumi_opendata
transport,bus_stop,보성황실2차아파트(홈플러스정문방면),36.10178721,128.3592321,,,,gumi_opendata_xlsx,314,gumi_opendata
transport,bus_stop,보성황실2차아파트정문앞,36.1011236,128.3600038,,,,gumi_opendata_xlsx,315,gumi_opendata
transport,bus_stop,복지상가건너,36.10307033,128.3854622,,,,gumi_opendata_xlsx,316,gumi_opendata
transport,bus_stop,복지상가앞,36.10373498,128.3852228,,,,gumi_opendata_xlsx,317,gumi_opendata
transport,bus_stop,봉곡(죽장2리방면),36.24811915,128.2608857,,,,gumi_opendata_xlsx,318,gumi_opendata
transport,bus_stop,봉곡(덕촌1리방면),36.24809584,128.261022,,,,gumi_opendata_xlsx,319,gumi_opendata
transport,bus_stop,봉곡네거리(부곡새마을방면),36.14029468,128.3111374,,,,gumi_opendata_xlsx,320,gumi_opendata
transport,bus_stop,봉곡네거리(선주고등학교방면),36.14054344,128.3103311,,,,gumi_opendata_xlsx,321,gumi_opendata
transport,bus_stop,봉곡e편한세상건너,36.15397684,128.3134402,,,,gumi_opendata_xlsx,322,gumi_opendata
transport,bus_stop,봉곡동대구은행앞,36.14966048,128.3127114,,,,gumi_opendata_xlsx,323,gumi_opendata
transport,bus_stop,봉곡동대구은행건너,36.14943467,128.3127605,,,,gumi_opendata_xlsx,324,gumi_opendata
transport,bus_stop,봉곡동입구(진주울입구방면),36.13855769,128.3093903,,,,gumi_opendata_xlsx,325,gumi_opendata
transport,bus_stop,봉곡동입구(선기동교복단지앞방면),36.13852891,128.3092992,,,,gumi_opendata_xlsx,326,gumi_opendata
transport,bus_stop,봉곡태성아파트건너,36.1541679,128.3071372,,,,gumi_opendata_xlsx,327,gumi_opendata
transport,bus_stop,봉곡태성아파트앞,36.15452238,128.3073342,,,,gumi_opendata_xlsx,328,gumi_opendata
transport,bus_stop,봉곡영남네오빌건너,36.15406345,128.3100057,,,,gumi_opendata_xlsx,329,gumi_opendata
transport,bus_stop,봉곡영남네오빌앞,36.15424623,128.31002,,,,gumi_opendata_xlsx,330,gumi_opendata
transport,bus_stop,봉곡청마루종점,36.15581551,128.3069326,,,,gumi_opendata_xlsx,331,gumi_opendata
transport,bus_stop,봉곡청마루출발지,36.1555753,128.3066577,,,,gumi_opendata_xlsx,332,gumi_opendata
transport,bus_stop,봉남리,36.21607269,128.2382034,,,,gumi_opendata_xlsx,333,gumi_opendata
transport,bus_stop,봉산정밀네거리,36.14760947,128.4374277,,,,gumi_opendata_xlsx,334,gumi_opendata
transport,bus_stop,봉한1리(낙동강부대앞방면),36.17805156,128.3520036,,,,gumi_opendata_xlsx,335,gumi_opendata
transport,bus_stop,봉한1리(봉한2리방면),36.17849638,128.3521626,,,,gumi_opendata_xlsx,336,gumi_opendata
transport,bus_stop,봉한2리(봉한1리방면),36.18119253,128.3508164,,,,gumi_opendata_xlsx,337,gumi_opendata
transport,bus_stop,봉한2리(항곡현일중고등학교앞방면),36.18261492,128.3505731,,,,gumi_opendata_xlsx,338,gumi_opendata
transport,bus_stop,부곡새마을(부곡진즐방면),36.14336595,128.3049561,,,,gumi_opendata_xlsx,339,gumi_opendata
transport,bus_stop,부곡새마을(봉곡네거리방면),36.14307181,128.3050324,,,,gumi_opendata_xlsx,340,gumi_opendata
transport,bus_stop,부곡장자터(구미대학교방면),36.14635374,128.2955669,,,,gumi_opendata_xlsx,341,gumi_opendata
transport,bus_stop,부곡장지터(부곡진줄방면),36.14614397,128.2954782,,,,gumi_opendata_xlsx,342,gumi_opendata
transport,bus_stop,부곡진줄(부곡새마을방면),36.14371457,128.3025594,,,,gumi_opendata_xlsx,343,gumi_opendata
transport,bus_stop,부곡진즐(부곡장자터방면),36.14412855,128.3019929,,,,gumi_opendata_xlsx,344,gumi_opendata
transport,bus_stop,북산1리,36.21072413,128.2681068,,,,gumi_opendata_xlsx,345,gumi_opendata
transport,bus_stop,북산2리(예산초등학교방면),36.21746196,128.264876,,,,gumi_opendata_xlsx,346,gumi_opendata
transport,bus_stop,북산2리(내고리방면),36.21868374,128.2647353,,,,gumi_opendata_xlsx,347,gumi_opendata
transport,bus_stop,형곡금호어울림앞,36.11941619,128.338457,,,,gumi_opendata_xlsx,348,gumi_opendata
transport,bus_stop,형곡금호어울림건너,36.11959296,128.3386901,,,,gumi_opendata_xlsx,349,gumi_opendata
transport,bus_stop,비산벽산A,36.11976207,128.3796102,,,,gumi_opendata_xlsx,350,gumi_opendata
transport,bus_stop,비산벽산A건너,36.11939246,128.3793451,,,,gumi_opendata_xlsx,351,gumi_opendata
transport,bus_stop,비산보성타운앞,36.11976207,128.3824707,,,,gumi_opendata_xlsx,352,gumi_opendata
transport,bus_stop,비산보성타운건너,36.11943263,128.3822296,,,,gumi_opendata_xlsx,353,gumi_opendata
transport,bus_stop,비산사거리(금오공대아파트건너),36.12048045,128.3712286,,,,gumi_opendata_xlsx,354,gumi_opendata
transport,bus_stop,비산사거리(금오공대아파트앞),36.12030349,128.3711861,,,,gumi_opendata_xlsx,355,gumi_opendata
transport,bus_stop,비산초등건너,36.11966161,128.3736036,,,,gumi_opendata_xlsx,356,gumi_opendata
transport,bus_stop,비산초등앞,36.11946297,128.3746134,,,,gumi_opendata_xlsx,357,gumi_opendata
transport,bus_stop,사곡고등학교앞,36.09624365,128.3529421,,,,gumi_opendata_xlsx,358,gumi_opendata
transport,bus_stop,사곡고등학교건너,36.09578737,128.353339,,,,gumi_opendata_xlsx,359,gumi_opendata
transport,bus_stop,사곡동(사곡동새마을방면),36.0973352,128.3587687,,,,gumi_opendata_xlsx,360,gumi_opendata
transport,bus_stop,사곡동(보성황실2차아파트방면),36.09663814,128.358915,,,,gumi_opendata_xlsx,361,gumi_opendata
transport,bus_stop,사곡동새마을(상모초등학교방면),36.09374477,128.3591129,,,,gumi_opendata_xlsx,362,gumi_opendata
transport,bus_stop,사곡동새마을(사곡동방면),36.09417425,128.359262,,,,gumi_opendata_xlsx,363,gumi_opendata
transport,bus_stop,사곡보성1차,36.09377442,128.3556711,,,,gumi_opendata_xlsx,364,gumi_opendata
transport,bus_stop,사곡전원리빙필건너,36.10141015,128.3572649,,,,gumi_opendata_xlsx,365,gumi_opendata
transport,bus_stop,사곡전원리빙필앞,36.10136398,128.3577,,,,gumi_opendata_xlsx,366,gumi_opendata
transport,bus_stop,산동농공단지앞,36.17365307,128.4409896,,,,gumi_opendata_xlsx,367,gumi_opendata
transport,bus_stop,산동농공단지건너,36.17378163,128.4413191,,,,gumi_opendata_xlsx,368,gumi_opendata
transport,bus_stop,산동버스정류장,36.1688342,128.4343505,,,,gumi_opendata_xlsx,369,gumi_opendata
transport,bus_stop,산양리(해평초등학교향산분교건너방면),36.22599536,128.3687637,,,,gumi_opendata_xlsx,370,gumi_opendata
transport,bus_stop,산양리(송곡리방면),36.22397795,128.3723315,,,,gumi_opendata_xlsx,371,gumi_opendata
transport,bus_stop,산양리(월곡리방면),36.2261182,128.3685896,,,,gumi_opendata_xlsx,372,gumi_opendata
transport,bus_stop,산양리(해평초등학교향산분교앞방면),36.22401249,128.3724264,,,,gumi_opendata_xlsx,373,gumi_opendata
transport,bus_stop,산촌리(신오리석거실방면),36.30575349,128.2412736,,,,gumi_opendata_xlsx,374,gumi_opendata
transport,bus_stop,산촌리(옥관2리방면),36.30563175,128.2413671,,,,gumi_opendata_xlsx,375,gumi_opendata
transport,bus_stop,산촌마을입구(태봉리방면),36.30397436,128.2174691,,,,gumi_opendata_xlsx,376,gumi_opendata
transport,bus_stop,산촌마을입구(신오리석거실방면),36.30426362,128.2174048,,,,gumi_opendata_xlsx,377,gumi_opendata
transport,bus_stop,삼구아파트,36.13846753,128.4207092,,,,gumi_opendata_xlsx,378,gumi_opendata
transport,bus_stop,삼구트리니엔건너,36.1383334,128.4207173,,,,gumi_opendata_xlsx,379,gumi_opendata
transport,bus_stop,삼성에스디에스,36.11079502,128.4110913,,,,gumi_opendata_xlsx,380,gumi_opendata
transport,bus_stop,삼성장미아파트앞,36.11490921,128.3541626,,,,gumi_opendata_xlsx,381,gumi_opendata
transport,bus_stop,삼성장미아파트건너,36.1149901,128.3543738,,,,gumi_opendata_xlsx,382,gumi_opendata
transport,bus_stop,삼성전자후문,36.10720185,128.418282,,,,gumi_opendata_xlsx,383,gumi_opendata
transport,bus_stop,삼성코닝어드밴스건너,36.10156078,128.4104068,,,,gumi_opendata_xlsx,384,gumi_opendata
transport,bus_stop,삼성코닝어드밴스앞,36.10248574,128.4106813,,,,gumi_opendata_xlsx,385,gumi_opendata
transport,bus_stop,상공회의소건너,36.1178145,128.3515027,,,,gumi_opendata_xlsx,386,gumi_opendata
transport,bus_stop,상공회의소앞,36.11768471,128.3522537,,,,gumi_opendata_xlsx,387,gumi_opendata
transport,bus_stop,상농소(중농소방면),36.29735854,128.2821242,,,,gumi_opendata_xlsx,388,gumi_opendata
transport,bus_stop,상농소(옥성방면),36.29757036,128.2822479,,,,gumi_opendata_xlsx,389,gumi_opendata
transport,bus_stop,상림리(묵어리방면),36.15434243,128.4922356,,,,gumi_opendata_xlsx,390,gumi_opendata
transport,bus_stop,상림리(오로1리방면),36.15419536,128.492044,,,,gumi_opendata_xlsx,391,gumi_opendata
transport,bus_stop,상림리입구(묵어리방면),36.15070395,128.4897665,,,,gumi_opendata_xlsx,392,gumi_opendata
transport,bus_stop,상림리입구(유환원룸방면),36.15026859,128.4899473,,,,gumi_opendata_xlsx,393,gumi_opendata
transport,bus_stop,상모고등학교앞,36.0840385,128.3513029,,,,gumi_opendata_xlsx,394,gumi_opendata
transport,bus_stop,상모고등학교건너,36.08386993,128.3509933,,,,gumi_opendata_xlsx,395,gumi_opendata
transport,bus_stop,상모정수도서관건너,36.08695127,128.3553143,,,,gumi_opendata_xlsx,396,gumi_opendata
transport,bus_stop,상모정수도서관앞,36.08678789,128.3555612,,,,gumi_opendata_xlsx,397,gumi_opendata
transport,bus_stop,상모농협앞,36.08860523,128.3584823,,,,gumi_opendata_xlsx,398,gumi_opendata
transport,bus_stop,상모농협건너,36.08871377,128.3586395,,,,gumi_opendata_xlsx,399,gumi_opendata
transport,bus_stop,상모동신인터빌건너,36.09167655,128.3552701,,,,gumi_opendata_xlsx,400,gumi_opendata
transport,bus_stop,상모동신인터빌앞,36.09166799,128.3554931,,,,gumi_opendata_xlsx,401,gumi_opendata
transport,bus_stop,상모로타리앞,36.08869567,128.3513195,,,,gumi_opendata_xlsx,402,gumi_opendata
transport,bus_stop,상모보성1차,36.09394168,128.355462,,,,gumi_opendata_xlsx,403,gumi_opendata
transport,bus_stop,상모동(상모정수도서관건너방면),36.08909176,128.3550872,,,,gumi_opendata_xlsx,404,gumi_opendata
transport,bus_stop,상모동(상모중학교방면),36.08835346,128.3553926,,,,gumi_opendata_xlsx,405,gumi_opendata
transport,bus_stop,상모중학교,36.09094859,128.3588799,,,,gumi_opendata_xlsx,406,gumi_opendata
transport,bus_stop,상모초등학교,36.09113227,128.3586011,,,,gumi_opendata_xlsx,407,gumi_opendata
transport,bus_stop,상송수다사입구(안곡방면),36.26997162,128.1602075,,,,gumi_opendata_xlsx,408,gumi_opendata
transport,bus_stop,상송수다사입구(오가2리방면),36.26973585,128.1598363,,,,gumi_opendata_xlsx,409,gumi_opendata
transport,bus_stop,새길도로,36.15276662,128.3252712,,,,gumi_opendata_xlsx,410,gumi_opendata
transport,bus_stop,새길도로입구(원호대우아파트방면),36.15210807,128.3241537,,,,gumi_opendata_xlsx,411,gumi_opendata
transport,bus_stop,새길도로입구(도량2동파크맨션방면),36.1509381,128.3230958,,,,gumi_opendata_xlsx,412,gumi_opendata
transport,bus_stop,새마을로(구미정보여고방면),36.10658076,128.3516717,,,,gumi_opendata_xlsx,413,gumi_opendata
transport,bus_stop,새마을로(사곡전원리빙필방면),36.10679007,128.3505402,,,,gumi_opendata_xlsx,414,gumi_opendata
transport,bus_stop,새한단지앞(광평동푸르지오아파트방면),36.10217546,128.3729295,,,,gumi_opendata_xlsx,415,gumi_opendata
transport,bus_stop,새한단지앞(직물협업단지방면),36.10200115,128.3727988,,,,gumi_opendata_xlsx,416,gumi_opendata
transport,bus_stop,생곡삼거리(생곡리고개방면),36.27550297,128.3234814,,,,gumi_opendata_xlsx,417,gumi_opendata
transport,bus_stop,생곡삼거리(신기리방면),36.27582805,128.3238972,,,,gumi_opendata_xlsx,418,gumi_opendata
transport,bus_stop,생곡삼거리(생곡리방면),36.27516683,128.3237027,,,,gumi_opendata_xlsx,419,gumi_opendata
transport,bus_stop,생곡리(일선교방면),36.27297848,128.3282555,,,,gumi_opendata_xlsx,420,gumi_opendata
transport,bus_stop,생곡리(생곡삼거리방면),36.27304974,128.328375,,,,gumi_opendata_xlsx,421,gumi_opendata
transport,bus_stop,생곡리고개(수도가압장방면),36.27101493,128.3203018,,,,gumi_opendata_xlsx,422,gumi_opendata
transport,bus_stop,생곡리고개(생곡삼거리방면),36.27110209,128.3207321,,,,gumi_opendata_xlsx,423,gumi_opendata
transport,bus_stop,서한아파트,36.10400497,128.4250802,,,,gumi_opendata_xlsx,424,gumi_opendata
transport,bus_stop,선산문화회관삼거리(선산터미널종점방면),36.24318593,128.3044972,,,,gumi_opendata_xlsx,425,gumi_opendata
transport,bus_stop,선산문화회관삼거리(황칠나무참숯돼지생갈비앞),36.24379804,128.3052933,,,,gumi_opendata_xlsx,426,gumi_opendata
transport,bus_stop,선산문화회관삼거리(선산행복센터방면),36.24343502,128.3044249,,,,gumi_opendata_xlsx,427,gumi_opendata
transport,bus_stop,선산중학교건너,36.23978341,128.2931579,,,,gumi_opendata_xlsx,429,gumi_opendata
transport,bus_stop,선산중학교앞,36.23997214,128.2937271,,,,gumi_opendata_xlsx,430,gumi_opendata
transport,bus_stop,선산읍행정복지센터건너,36.24245342,128.2986817,,,,gumi_opendata_xlsx,431,gumi_opendata
transport,bus_stop,선산읍행정복지센터,36.24254684,128.2982154,,,,gumi_opendata_xlsx,432,gumi_opendata
transport,bus_stop,선산컨트리클럽(경운대방면),36.16687665,128.4433529,,,,gumi_opendata_xlsx,433,gumi_opendata
transport,bus_stop,선산컨트리클럽(적림리방면),36.16719805,128.4431038,,,,gumi_opendata_xlsx,434,gumi_opendata
transport,bus_stop,선산터미널종점,36.23971938,128.3043322,,,,gumi_opendata_xlsx,435,gumi_opendata
transport,bus_stop,선산휴게소밑(대원2리방면),36.27569119,128.2472468,,,,gumi_opendata_xlsx,436,gumi_opendata
transport,bus_stop,선산휴게소밑(대원방면),36.27546621,128.2475762,,,,gumi_opendata_xlsx,437,gumi_opendata
transport,bus_stop,선주고등학교건너,36.14064522,128.3138452,,,,gumi_opendata_xlsx,438,gumi_opendata
transport,bus_stop,선주고등학교앞,36.14076653,128.3135908,,,,gumi_opendata_xlsx,439,gumi_opendata
transport,bus_stop,선주초등학교건너,36.15091715,128.31037,,,,gumi_opendata_xlsx,440,gumi_opendata
transport,bus_stop,선주초등학교앞,36.15063251,128.3107449,,,,gumi_opendata_xlsx,441,gumi_opendata
transport,bus_stop,성수1리,36.15676519,128.4060589,,,,gumi_opendata_xlsx,442,gumi_opendata
transport,bus_stop,성수리입구(옥계방면),36.16265237,128.4151963,,,,gumi_opendata_xlsx,443,gumi_opendata
transport,bus_stop,성수리입구(산동육교방면),36.16294967,128.4152445,,,,gumi_opendata_xlsx,445,gumi_opendata
transport,bus_stop,성안합섬건너,36.08431972,128.3769024,,,,gumi_opendata_xlsx,446,gumi_opendata
transport,bus_stop,성안합섬앞,36.08405457,128.3771836,,,,gumi_opendata_xlsx,447,gumi_opendata
transport,bus_stop,성원아파트건너,36.12880272,128.4155573,,,,gumi_opendata_xlsx,448,gumi_opendata
transport,bus_stop,성원아파트앞,36.12879299,128.4158753,,,,gumi_opendata_xlsx,449,gumi_opendata
transport,bus_stop,성진엔지니어링,36.14769786,128.4436147,,,,gumi_opendata_xlsx,450,gumi_opendata
transport,bus_stop,하나로마트양포점,36.14651675,128.4188515,,,,gumi_opendata_xlsx,451,gumi_opendata
transport,bus_stop,세무서4거리,36.11164432,128.3852727,,,,gumi_opendata_xlsx,452,gumi_opendata
transport,bus_stop,새월사각지(학하리입구방면),36.09776356,128.4749343,,,,gumi_opendata_xlsx,453,gumi_opendata
transport,bus_stop,새월사각지(신동새마을방면),36.09811217,128.4750398,,,,gumi_opendata_xlsx,454,gumi_opendata
transport,bus_stop,소로골네거리(롯데리아건너),36.13852913,128.3241011,,,,gumi_opendata_xlsx,455,gumi_opendata
transport,bus_stop,소로골네거리(롯데리아앞),36.13849385,128.323883,,,,gumi_opendata_xlsx,456,gumi_opendata
transport,bus_stop,소재리,36.23152141,128.2423419,,,,gumi_opendata_xlsx,457,gumi_opendata
transport,bus_stop,송곡1리(송곡리방면),36.22642329,128.385609,,,,gumi_opendata_xlsx,458,gumi_opendata
transport,bus_stop,송곡1리(해평도리사방면),36.24251687,128.3819608,,,,gumi_opendata_xlsx,459,gumi_opendata
transport,bus_stop,송곡리(금호1리방면),36.21985016,128.3758799,,,,gumi_opendata_xlsx,460,gumi_opendata
transport,bus_stop,송곡리(송덕휴게소앞),36.21996265,128.3761371,,,,gumi_opendata_xlsx,461,gumi_opendata
transport,bus_stop,송곡리(산양리방면),36.22164511,128.3751344,,,,gumi_opendata_xlsx,462,gumi_opendata
transport,bus_stop,송림(문성지구 출발방면),36.16876963,128.3651073,,,,gumi_opendata_xlsx,463,gumi_opendata
transport,bus_stop,송림(괴평무지개아파트방면),36.16857053,128.3648289,,,,gumi_opendata_xlsx,464,gumi_opendata
transport,bus_stop,송림네거리(청솔아파트방면),36.16330671,128.3548007,,,,gumi_opendata_xlsx,467,gumi_opendata
transport,bus_stop,송림삼거리(문성3리방면),36.16345346,128.3535808,,,,gumi_opendata_xlsx,468,gumi_opendata
transport,bus_stop,송삼2리(무을면행정복지센터방면),36.25800493,128.208688,,,,gumi_opendata_xlsx,469,gumi_opendata
transport,bus_stop,송삼2리(무을원동방면),36.25752442,128.208347,,,,gumi_opendata_xlsx,470,gumi_opendata
transport,bus_stop,송삼2리(무이리방면),36.25789381,128.2082368,,,,gumi_opendata_xlsx,471,gumi_opendata
transport,bus_stop,송산리우복마을(백현리방면),36.22199529,128.4799114,,,,gumi_opendata_xlsx,472,gumi_opendata
transport,bus_stop,송산리우복마을(평호리방면),36.22225208,128.4803217,,,,gumi_opendata_xlsx,473,gumi_opendata
transport,bus_stop,송산리정실(백현1리방면),36.21381164,128.4775166,,,,gumi_opendata_xlsx,474,gumi_opendata
transport,bus_stop,송산리정실(송산리우복마을방면),36.21365113,128.4778102,,,,gumi_opendata_xlsx,475,gumi_opendata
transport,bus_stop,송원고가밑(터미널네거리방면),36.12386997,128.3421501,,,,gumi_opendata_xlsx,476,gumi_opendata
transport,bus_stop,송원고가밑(구미역방면),36.12341245,128.3439691,,,,gumi_opendata_xlsx,477,gumi_opendata
transport,bus_stop,송정동번개시장앞,36.12189624,128.3400031,,,,gumi_opendata_xlsx,478,gumi_opendata
transport,bus_stop,송정동번개시장건너,36.1212612,128.3405662,,,,gumi_opendata_xlsx,479,gumi_opendata
transport,bus_stop,송정동이구빌라,36.1171587,128.3406295,,,,gumi_opendata_xlsx,480,gumi_opendata
transport,bus_stop,송정여중입구건너,36.1156004,128.3482761,,,,gumi_opendata_xlsx,481,gumi_opendata
transport,bus_stop,송정여중입구앞,36.11499381,128.3495976,,,,gumi_opendata_xlsx,482,gumi_opendata
transport,bus_stop,수도가압장(SK실트론건너방면),36.1112048,128.4148276,,,,gumi_opendata_xlsx,483,gumi_opendata
transport,bus_stop,선산전문장례식장건너,36.26737083,128.3172351,,,,gumi_opendata_xlsx,484,gumi_opendata
transport,bus_stop,선산전문장례식장앞,36.26698721,128.317339,,,,gumi_opendata_xlsx,485,gumi_opendata
transport,bus_stop,수도가압장건너편,36.11080431,128.413383,,,,gumi_opendata_xlsx,486,gumi_opendata
transport,bus_stop,수철앞,36.27366137,128.4019107,,,,gumi_opendata_xlsx,487,gumi_opendata
transport,bus_stop,수철건너,36.27387831,128.4009947,,,,gumi_opendata_xlsx,488,gumi_opendata
transport,bus_stop,순천향병원건너,36.10192596,128.3826807,,,,gumi_opendata_xlsx,489,gumi_opendata
transport,bus_stop,순천향병원앞,36.10227734,128.3825819,,,,gumi_opendata_xlsx,490,gumi_opendata
transport,bus_stop,습례1리,36.2117483,128.2567761,,,,gumi_opendata_xlsx,491,gumi_opendata
transport,bus_stop,습례2리,36.21076803,128.2553137,,,,gumi_opendata_xlsx,492,gumi_opendata
transport,bus_stop,습례2리입구,36.2082129,128.2515855,,,,gumi_opendata_xlsx,493,gumi_opendata
transport,bus_stop,습례리,36.21313032,128.2603115,,,,gumi_opendata_xlsx,494,gumi_opendata
transport,bus_stop,시민운동장건너,36.11406021,128.3526598,,,,gumi_opendata_xlsx,495,gumi_opendata
transport,bus_stop,시민운동장,36.11393993,128.3525919,,,,gumi_opendata_xlsx,496,gumi_opendata
transport,bus_stop,시영아파트,36.10396694,128.334678,,,,gumi_opendata_xlsx,497,gumi_opendata
transport,bus_stop,시청정문앞,36.11820483,128.3453448,,,,gumi_opendata_xlsx,498,gumi_opendata
transport,bus_stop,시청정문건너,36.11760598,128.3436067,,,,gumi_opendata_xlsx,499,gumi_opendata
transport,bus_stop,시청후문건너,36.12059897,128.3442194,,,,gumi_opendata_xlsx,500,gumi_opendata
transport,bus_stop,시청후문앞,36.12044819,128.3444543,,,,gumi_opendata_xlsx,501,gumi_opendata
transport,bus_stop,신곡,36.31671545,128.3486541,,,,gumi_opendata_xlsx,502,gumi_opendata
transport,bus_stop,신기리(생곡삼거리방면),36.2822665,128.3268201,,,,gumi_opendata_xlsx,503,gumi_opendata
transport,bus_stop,신기리(신풍진마을입구방면),36.2819302,128.3267483,,,,gumi_opendata_xlsx,504,gumi_opendata
transport,bus_stop,신나리아파트,36.13747946,128.4135441,,,,gumi_opendata_xlsx,505,gumi_opendata
transport,bus_stop,신당,36.23536213,128.2431534,,,,gumi_opendata_xlsx,506,gumi_opendata
transport,bus_stop,골드디움아파트,36.15688373,128.4349231,,,,gumi_opendata_xlsx,507,gumi_opendata
transport,bus_stop,골드디움아파트건너,36.15674713,128.4351802,,,,gumi_opendata_xlsx,508,gumi_opendata
transport,bus_stop,신당리(옥계우미린아파트건너방면),36.15207098,128.433323,,,,gumi_opendata_xlsx,509,gumi_opendata
transport,bus_stop,신당리(신당2리방면),36.15199063,128.4336926,,,,gumi_opendata_xlsx,510,gumi_opendata
transport,bus_stop,신동새마을(새월사각지방면),36.09582105,128.4700063,,,,gumi_opendata_xlsx,511,gumi_opendata
transport,bus_stop,신동새마을(신동입구방면),36.09634731,128.4704315,,,,gumi_opendata_xlsx,512,gumi_opendata
transport,bus_stop,신동입구(신동새마을방면),36.09472224,128.4653847,,,,gumi_opendata_xlsx,513,gumi_opendata
transport,bus_stop,신동입구(구평새월못방면),36.09498474,128.465044,,,,gumi_opendata_xlsx,514,gumi_opendata
transport,bus_stop,신림,36.28096582,128.3522801,,,,gumi_opendata_xlsx,515,gumi_opendata
transport,bus_stop,신림,36.28072193,128.3523059,,,,gumi_opendata_xlsx,516,gumi_opendata
transport,bus_stop,신오리 석거실(산촌마을입구방면),36.30351976,128.2274294,,,,gumi_opendata_xlsx,517,gumi_opendata
transport,bus_stop,신오리 석거실(산촌리방면),36.30340606,128.2275228,,,,gumi_opendata_xlsx,518,gumi_opendata
transport,bus_stop,신장리,36.11979648,128.4784553,,,,gumi_opendata_xlsx,519,gumi_opendata
transport,bus_stop,신장1리(신장2리방면),36.12864938,128.4855293,,,,gumi_opendata_xlsx,520,gumi_opendata
transport,bus_stop,신장1리(하장리방면),36.12856091,128.4856069,,,,gumi_opendata_xlsx,521,gumi_opendata
transport,bus_stop,신장2리(삼학리방면),36.11919625,128.4837883,,,,gumi_opendata_xlsx,522,gumi_opendata
transport,bus_stop,신장2리(신장1리방면),36.11899815,128.4838535,,,,gumi_opendata_xlsx,523,gumi_opendata
transport,bus_stop,신창메디칼앞,36.08835329,128.3768462,,,,gumi_opendata_xlsx,524,gumi_opendata
transport,bus_stop,신창메디칼건너,36.08881579,128.377206,,,,gumi_opendata_xlsx,525,gumi_opendata
transport,bus_stop,구미경찰서건너,36.11631541,128.3626142,,,,gumi_opendata_xlsx,526,gumi_opendata
transport,bus_stop,구미경찰서,36.11616768,128.3632418,,,,gumi_opendata_xlsx,527,gumi_opendata
transport,bus_stop,강산타운아파트건너,36.12141381,128.3594641,,,,gumi_opendata_xlsx,528,gumi_opendata
transport,bus_stop,강산타운아파트앞,36.12132193,128.3596194,,,,gumi_opendata_xlsx,529,gumi_opendata
transport,bus_stop,신평농협,36.12214845,128.3611767,,,,gumi_opendata_xlsx,530,gumi_opendata
transport,bus_stop,구미IC네거리,36.1195893,128.3605576,,,,gumi_opendata_xlsx,531,gumi_opendata
transport,bus_stop,구미IC네거리,36.119205,128.3601083,,,,gumi_opendata_xlsx,532,gumi_opendata
transport,bus_stop,신평시장,36.12302785,128.3634936,,,,gumi_opendata_xlsx,533,gumi_opendata
transport,bus_stop,신평우석아파트,36.12210227,128.366184,,,,gumi_opendata_xlsx,534,gumi_opendata
transport,bus_stop,신평중학교입구,36.12296633,128.3641015,,,,gumi_opendata_xlsx,535,gumi_opendata
transport,bus_stop,신평파출소앞,36.12200899,128.3615389,,,,gumi_opendata_xlsx,536,gumi_opendata
transport,bus_stop,신풍진마을입구(신기리방면),36.28680758,128.3266222,,,,gumi_opendata_xlsx,537,gumi_opendata
transport,bus_stop,신풍진마을입구(초곡방면),36.28681869,128.3267123,,,,gumi_opendata_xlsx,538,gumi_opendata
transport,bus_stop,신한그린타운건너,36.06875362,128.3521555,,,,gumi_opendata_xlsx,539,gumi_opendata
transport,bus_stop,신한그린타운앞,36.06868579,128.3523073,,,,gumi_opendata_xlsx,540,gumi_opendata
transport,bus_stop,금오레미콘앞,36.09052882,128.3768441,,,,gumi_opendata_xlsx,541,gumi_opendata
transport,bus_stop,금오레미콘건너,36.09050794,128.3770691,,,,gumi_opendata_xlsx,542,gumi_opendata
transport,bus_stop,아사히글라스건너,36.14665331,128.4478893,,,,gumi_opendata_xlsx,543,gumi_opendata
transport,bus_stop,오로삼거리,36.21446278,128.3203419,,,,gumi_opendata_xlsx,544,gumi_opendata
transport,bus_stop,오로삼거리,36.21456073,128.3206178,,,,gumi_opendata_xlsx,545,gumi_opendata
transport,bus_stop,안곡(산현4리방면),36.27292,128.1480861,,,,gumi_opendata_xlsx,546,gumi_opendata
transport,bus_stop,안곡(상송수다사입구방면),36.27310161,128.1476127,,,,gumi_opendata_xlsx,547,gumi_opendata
transport,bus_stop,내예리(외예리방면),36.18738801,128.2894069,,,,gumi_opendata_xlsx,548,gumi_opendata
transport,bus_stop,내예리(횡산역방면),36.18712794,128.2895413,,,,gumi_opendata_xlsx,549,gumi_opendata
transport,bus_stop,양포동행정복지센터,36.13651701,128.4243603,,,,gumi_opendata_xlsx,550,gumi_opendata
transport,bus_stop,양포동행정복지센터건너,36.13617554,128.4245814,,,,gumi_opendata_xlsx,551,gumi_opendata
transport,bus_stop,양호동빈수골(금오공대입구방면),36.12907707,128.391727,,,,gumi_opendata_xlsx,552,gumi_opendata
transport,bus_stop,양호동빈수골(엘지연수원방면),36.12910736,128.3911848,,,,gumi_opendata_xlsx,553,gumi_opendata
transport,bus_stop,양호동종점,36.13544819,128.3814329,,,,gumi_opendata_xlsx,554,gumi_opendata
transport,bus_stop,어구산입구삼거리,36.3096826,128.2459982,,,,gumi_opendata_xlsx,555,gumi_opendata
transport,bus_stop,어구산입구(산촌리),36.30995579,128.2462794,,,,gumi_opendata_xlsx,556,gumi_opendata
transport,bus_stop,에이에스티앞,36.1403137,128.4479134,,,,gumi_opendata_xlsx,557,gumi_opendata
transport,bus_stop,엘지디스플레이(시미동),36.09736083,128.410436,,,,gumi_opendata_xlsx,558,gumi_opendata
transport,bus_stop,"엘지디스플레이2,3공장",36.1111251,128.4086556,,,,gumi_opendata_xlsx,559,gumi_opendata
transport,bus_stop,LG디스플레이건너,36.09825825,128.4106988,,,,gumi_opendata_xlsx,560,gumi_opendata
transport,bus_stop,SK실트론건너,36.09195448,128.410469,,,,gumi_opendata_xlsx,561,gumi_opendata
transport,bus_stop,SK실트론앞,36.09247213,128.4107479,,,,gumi_opendata_xlsx,562,gumi_opendata
transport,bus_stop,엘지연수원건너,36.1210508,128.3857179,,,,gumi_opendata_xlsx,563,gumi_opendata
transport,bus_stop,엘지연수원앞,36.12130876,128.3854717,,,,gumi_opendata_xlsx,564,gumi_opendata
transport,bus_stop,엘지이노텍앞,36.127016,128.413627,,,,gumi_opendata_xlsx,565,gumi_opendata
transport,bus_stop,엘지이노텍건너,36.12678134,128.4135597,,,,gumi_opendata_xlsx,566,gumi_opendata
transport,bus_stop,엘지PDP옆,36.10983082,128.3819002,,,,gumi_opendata_xlsx,567,gumi_opendata
transport,bus_stop,여남리(장천버스터미널종점방면),36.12390382,128.5280619,,,,gumi_opendata_xlsx,568,gumi_opendata
transport,bus_stop,여남리(명곡종점방면),36.12382646,128.5280712,,,,gumi_opendata_xlsx,569,gumi_opendata
transport,bus_stop,봉곡e편한세상앞,36.15416085,128.3133571,,,,gumi_opendata_xlsx,570,gumi_opendata
transport,bus_stop,영남에너지서비스앞,36.09359446,128.3767635,,,,gumi_opendata_xlsx,571,gumi_opendata
transport,bus_stop,영남에너지서비스건너,36.09308717,128.3770209,,,,gumi_opendata_xlsx,572,gumi_opendata
transport,bus_stop,영진하이텍건너,36.14076345,128.4513143,,,,gumi_opendata_xlsx,573,gumi_opendata
transport,bus_stop,영진하이텍앞,36.14086196,128.4517336,,,,gumi_opendata_xlsx,574,gumi_opendata
transport,bus_stop,예강1리(고아119안전센터앞),36.19970071,128.3396784,,,,gumi_opendata_xlsx,575,gumi_opendata
transport,bus_stop,예강1리(고아119안전센터건너),36.20033984,128.3392977,,,,gumi_opendata_xlsx,576,gumi_opendata
transport,bus_stop,예산초등학교(북산2리방면),36.21546286,128.2684596,,,,gumi_opendata_xlsx,577,gumi_opendata
transport,bus_stop,예산초등학교(내고2리방면),36.21557312,128.26819,,,,gumi_opendata_xlsx,578,gumi_opendata
transport,bus_stop,예일베어링건너,36.1194433,128.384359,,,,gumi_opendata_xlsx,579,gumi_opendata
transport,bus_stop,예일베어링앞,36.11974289,128.3846531,,,,gumi_opendata_xlsx,580,gumi_opendata
transport,bus_stop,오가1리,36.27446877,128.1779397,,,,gumi_opendata_xlsx,581,gumi_opendata
transport,bus_stop,오가2리(상송리방면),36.26564063,128.1699426,,,,gumi_opendata_xlsx,582,gumi_opendata
transport,bus_stop,오가2리(무등리방면),36.26550095,128.1698985,,,,gumi_opendata_xlsx,583,gumi_opendata
transport,bus_stop,오가3리 무등1리(오가2리방면),36.26488972,128.17732,,,,gumi_opendata_xlsx,584,gumi_opendata
transport,bus_stop,오가3리 무등1리(오가3리경로당방면),36.26464121,128.1768109,,,,gumi_opendata_xlsx,585,gumi_opendata
transport,bus_stop,오가3리 무등1리(무등2리방면),36.26464525,128.1772917,,,,gumi_opendata_xlsx,586,gumi_opendata
transport,bus_stop,오가3리 무등1리(무등1리노인회관방면),36.26467007,128.1767663,,,,gumi_opendata_xlsx,587,gumi_opendata
transport,bus_stop,오가3리경로당건너,36.26809304,128.1774873,,,,gumi_opendata_xlsx,588,gumi_opendata
transport,bus_stop,오가3리경로당앞,36.26810778,128.1775785,,,,gumi_opendata_xlsx,589,gumi_opendata
transport,bus_stop,오로1리(금산방면),36.17399373,128.5268969,,,,gumi_opendata_xlsx,590,gumi_opendata
transport,bus_stop,오로1리(오로2리방면),36.17391177,128.5269633,,,,gumi_opendata_xlsx,591,gumi_opendata
transport,bus_stop,오로2리(오로1리방면),36.17988007,128.5403541,,,,gumi_opendata_xlsx,592,gumi_opendata
transport,bus_stop,오로2리(오로리종점방면),36.17979249,128.5403802,,,,gumi_opendata_xlsx,593,gumi_opendata
transport,bus_stop,오로리(오로삼거리방면),36.21718118,128.3153062,,,,gumi_opendata_xlsx,594,gumi_opendata
transport,bus_stop,오로리(오로리새마을방면),36.21745408,128.3153928,,,,gumi_opendata_xlsx,595,gumi_opendata
transport,bus_stop,오로리새마을(오로리방면),36.21972905,128.3135666,,,,gumi_opendata_xlsx,596,gumi_opendata
transport,bus_stop,오로리새마을(고아에덴아파트방면),36.21973932,128.3138782,,,,gumi_opendata_xlsx,597,gumi_opendata
transport,bus_stop,오로리종점,36.18595842,128.5384512,,,,gumi_opendata_xlsx,598,gumi_opendata
transport,bus_stop,오로리출발,36.18589351,128.5384426,,,,gumi_opendata_xlsx,599,gumi_opendata
transport,bus_stop,오상리(문량리방면),36.18671448,128.3977019,,,,gumi_opendata_xlsx,600,gumi_opendata
transport,bus_stop,오상리(오상리새마을금고앞방면),36.1868631,128.3976914,,,,gumi_opendata_xlsx,601,gumi_opendata
transport,bus_stop,오상리새마을금고앞(문량리방면),36.19046187,128.3951137,,,,gumi_opendata_xlsx,602,gumi_opendata
transport,bus_stop,오상리새마을금고앞(해평정류장방면),36.19037809,128.395355,,,,gumi_opendata_xlsx,603,gumi_opendata
transport,bus_stop,오상중고등학교건너,36.12369639,128.4960284,,,,gumi_opendata_xlsx,604,gumi_opendata
transport,bus_stop,오상중고등학교앞,36.12382524,128.4960596,,,,gumi_opendata_xlsx,605,gumi_opendata
transport,bus_stop,오태1동입구건너,36.07989067,128.3779122,,,,gumi_opendata_xlsx,606,gumi_opendata
transport,bus_stop,오태1동,36.08000533,128.3759662,,,,gumi_opendata_xlsx,607,gumi_opendata
transport,bus_stop,오태2동 구봉 종점출발,36.07056808,128.3664303,,,,gumi_opendata_xlsx,608,gumi_opendata
transport,bus_stop,오태2동 묘골(오태2동종점방면),36.07443709,128.3590356,,,,gumi_opendata_xlsx,609,gumi_opendata
transport,bus_stop,오태2동 묘골(남구미자동차학원방면),36.07439199,128.3590942,,,,gumi_opendata_xlsx,610,gumi_opendata
transport,bus_stop,오태2동입구,36.08194963,128.3566641,,,,gumi_opendata_xlsx,611,gumi_opendata
transport,bus_stop,오태2동입구건너,36.08289022,128.3572847,,,,gumi_opendata_xlsx,612,gumi_opendata
transport,bus_stop,오태2동종점,36.07045104,128.3664567,,,,gumi_opendata_xlsx,613,gumi_opendata
transport,bus_stop,옥계대백타운 출발지,36.14754494,128.4116754,,,,gumi_opendata_xlsx,614,gumi_opendata
transport,bus_stop,양포파출소앞,36.1472047,128.4179203,,,,gumi_opendata_xlsx,615,gumi_opendata
transport,bus_stop,옥계대백타운입구(4공단방면),36.14641877,128.4186153,,,,gumi_opendata_xlsx,616,gumi_opendata
transport,bus_stop,인동농협양포지점 건너,36.14695737,128.416775,,,,gumi_opendata_xlsx,617,gumi_opendata
transport,bus_stop,옥계대백타운종점,36.1478206,128.4108553,,,,gumi_opendata_xlsx,618,gumi_opendata
transport,bus_stop,옥계대우아파트건너,36.13692861,128.4150098,,,,gumi_opendata_xlsx,619,gumi_opendata
transport,bus_stop,옥계대우아파트앞,36.13710958,128.4161283,,,,gumi_opendata_xlsx,620,gumi_opendata
transport,bus_stop,옥계부영아파트앞,36.13972754,128.4176605,,,,gumi_opendata_xlsx,621,gumi_opendata
transport,bus_stop,옥계부영아파트건너,36.14089299,128.4181015,,,,gumi_opendata_xlsx,622,gumi_opendata
transport,bus_stop,옥계에덴타운(종점방면),36.14747384,128.4139255,,,,gumi_opendata_xlsx,623,gumi_opendata
transport,bus_stop,옥계에덴타운(입구방면),36.14734233,128.4135189,,,,gumi_opendata_xlsx,624,gumi_opendata
transport,bus_stop,옥계중학교건너,36.13640645,128.4114203,,,,gumi_opendata_xlsx,625,gumi_opendata
transport,bus_stop,옥계중학교앞,36.13701578,128.4119213,,,,gumi_opendata_xlsx,626,gumi_opendata
transport,bus_stop,옥관1리 문정자(화훼단지주유소방면),36.3275302,128.2755419,,,,gumi_opendata_xlsx,627,gumi_opendata
transport,bus_stop,옥관1리 문정자(구미원예공사방면),36.32753384,128.2756684,,,,gumi_opendata_xlsx,628,gumi_opendata
transport,bus_stop,옥관1리구평(옥관2리방면),36.33998255,128.2637797,,,,gumi_opendata_xlsx,629,gumi_opendata
transport,bus_stop,옥관1리구평(옥관입구방면),36.33987006,128.2638439,,,,gumi_opendata_xlsx,630,gumi_opendata
transport,bus_stop,옥관2리(경로당앞),36.34111548,128.2573918,,,,gumi_opendata_xlsx,631,gumi_opendata
transport,bus_stop,옥관2리(경로당건너),36.34101906,128.2573677,,,,gumi_opendata_xlsx,632,gumi_opendata
transport,bus_stop,옥관입구(구미원예공사방면),36.34343123,128.2743925,,,,gumi_opendata_xlsx,633,gumi_opendata
transport,bus_stop,옥관입구(구봉방면),36.34343437,128.2744812,,,,gumi_opendata_xlsx,634,gumi_opendata
transport,bus_stop,옥성(상농소방면),36.29685302,128.2779996,,,,gumi_opendata_xlsx,635,gumi_opendata
transport,bus_stop,옥성(농소2리이곡방면),36.29685626,128.2781837,,,,gumi_opendata_xlsx,636,gumi_opendata
transport,bus_stop,옥성(중농소방면),36.2955718,128.2793714,,,,gumi_opendata_xlsx,637,gumi_opendata
transport,bus_stop,와례마을입구(성호철강방면),36.13036909,128.456727,,,,gumi_opendata_xlsx,638,gumi_opendata
transport,bus_stop,와례마을입구(신장리방면),36.13020839,128.4566065,,,,gumi_opendata_xlsx,639,gumi_opendata
transport,bus_stop,외국인전용단지입구,36.13848172,128.440706,,,,gumi_opendata_xlsx,640,gumi_opendata
transport,bus_stop,외국인전용단지입구건너,36.13812818,128.4407301,,,,gumi_opendata_xlsx,641,gumi_opendata
transport,bus_stop,용댐이,36.32251471,128.3134056,,,,gumi_opendata_xlsx,642,gumi_opendata
transport,bus_stop,용동골고개(선산문회회관삼거리방면),36.26389558,128.3152088,,,,gumi_opendata_xlsx,643,gumi_opendata
transport,bus_stop,용동골고개(수도가압장방면),36.26380298,128.3154702,,,,gumi_opendata_xlsx,644,gumi_opendata
transport,bus_stop,용산1리 산두,36.32576426,128.306527,,,,gumi_opendata_xlsx,645,gumi_opendata
transport,bus_stop,용산2리,36.33876056,128.2990859,,,,gumi_opendata_xlsx,646,gumi_opendata
transport,bus_stop,용정리,36.3274853,128.3223107,,,,gumi_opendata_xlsx,647,gumi_opendata
transport,bus_stop,용정리,36.32732063,128.3222969,,,,gumi_opendata_xlsx,648,gumi_opendata
transport,bus_stop,우미린아파트,36.14289374,128.4289177,,,,gumi_opendata_xlsx,649,gumi_opendata
transport,bus_stop,우방3차건너,36.1144838,128.3322819,,,,gumi_opendata_xlsx,650,gumi_opendata
transport,bus_stop,우방3차앞,36.11445282,128.3325084,,,,gumi_opendata_xlsx,651,gumi_opendata
transport,bus_stop,화성파크2단지앞,36.08647508,128.3587056,,,,gumi_opendata_xlsx,652,gumi_opendata
transport,bus_stop,화성파크2단지건너,36.08648701,128.3588715,,,,gumi_opendata_xlsx,653,gumi_opendata
transport,bus_stop,상모우방2단지앞,36.08377758,128.3568039,,,,gumi_opendata_xlsx,654,gumi_opendata
transport,bus_stop,상모우방1단지앞,36.08380787,128.3570302,,,,gumi_opendata_xlsx,655,gumi_opendata
transport,bus_stop,우본 자동차검사소,36.12111706,128.3751403,,,,gumi_opendata_xlsx,656,gumi_opendata
transport,bus_stop,금오시장 입구,36.12474098,128.340973,,,,gumi_opendata_xlsx,657,gumi_opendata
transport,bus_stop,웅곡리(무이리방면),36.25252542,128.2323589,,,,gumi_opendata_xlsx,658,gumi_opendata
transport,bus_stop,웅곡리(웅곡리곰실방면),36.25221856,128.2312955,,,,gumi_opendata_xlsx,659,gumi_opendata
transport,bus_stop,웅곡리(포상2리 하송방면),36.25275195,128.2316192,,,,gumi_opendata_xlsx,660,gumi_opendata
transport,bus_stop,웅곡리(백자리방면),36.25251231,128.2312199,,,,gumi_opendata_xlsx,661,gumi_opendata
transport,bus_stop,웅곡리곰실,36.26003921,128.2314059,,,,gumi_opendata_xlsx,662,gumi_opendata
transport,bus_stop,원2리(원리 회차방면),36.22999974,128.3308507,,,,gumi_opendata_xlsx,663,gumi_opendata
transport,bus_stop,원2리(선산터미널종점방면),36.23008997,128.3310639,,,,gumi_opendata_xlsx,664,gumi_opendata
transport,bus_stop,원3리 어게이(원3리 종점방면),36.2188714,128.3437815,,,,gumi_opendata_xlsx,665,gumi_opendata
transport,bus_stop,원3리 어게이(원리 회차방면),36.21931173,128.3436233,,,,gumi_opendata_xlsx,666,gumi_opendata
transport,bus_stop,원리 회차,36.22640807,128.3386999,,,,gumi_opendata_xlsx,667,gumi_opendata
transport,bus_stop,원리3리 종점,36.21286204,128.3497211,,,,gumi_opendata_xlsx,668,gumi_opendata
transport,bus_stop,원평동(대구은행앞방면),36.12802591,128.3375163,,,,gumi_opendata_xlsx,669,gumi_opendata
transport,bus_stop,원평동(지산1동방면),36.12783197,128.3376894,,,,gumi_opendata_xlsx,670,gumi_opendata
transport,bus_stop,원평2동산업도로(도량교방면),36.13316801,128.3278393,,,,gumi_opendata_xlsx,671,gumi_opendata
transport,bus_stop,원평2동산업도로(원평2동행정복지센터방면),36.1337462,128.3308973,,,,gumi_opendata_xlsx,672,gumi_opendata
transport,bus_stop,원평2동행정복지센터건너,36.13129062,128.325838,,,,gumi_opendata_xlsx,673,gumi_opendata
transport,bus_stop,원평2동행정복지센터앞,36.13146971,128.3248932,,,,gumi_opendata_xlsx,674,gumi_opendata
transport,bus_stop,원호푸르지오아파트건너,36.15602465,128.3346433,,,,gumi_opendata_xlsx,675,gumi_opendata
transport,bus_stop,원호푸르지오아파트앞,36.15634203,128.334764,,,,gumi_opendata_xlsx,676,gumi_opendata
transport,bus_stop,원호동(원호대우아파트앞방면),36.15065564,128.3306036,,,,gumi_opendata_xlsx,677,gumi_opendata
transport,bus_stop,원호동(구미중학교방면),36.15110518,128.3300315,,,,gumi_opendata_xlsx,678,gumi_opendata
transport,bus_stop,월곡리(산양리방면),36.23013713,128.3627695,,,,gumi_opendata_xlsx,679,gumi_opendata
transport,bus_stop,월곡리(월곡마을회관방면),36.23012675,128.362939,,,,gumi_opendata_xlsx,680,gumi_opendata
transport,bus_stop,월곡마을회관건너,36.23056473,128.3594564,,,,gumi_opendata_xlsx,681,gumi_opendata
transport,bus_stop,월곡마을회관앞,36.23063355,128.3596066,,,,gumi_opendata_xlsx,682,gumi_opendata
transport,bus_stop,월림1리,36.30846895,128.3110693,,,,gumi_opendata_xlsx,683,gumi_opendata
transport,bus_stop,월림1리입구(월림2리임호방면),36.31426676,128.3176179,,,,gumi_opendata_xlsx,684,gumi_opendata
transport,bus_stop,월림1리입구(용정리방면),36.31435779,128.3176801,,,,gumi_opendata_xlsx,685,gumi_opendata
transport,bus_stop,월림2리 임호(도개문화마을방면),36.30925092,128.323882,,,,gumi_opendata_xlsx,686,gumi_opendata
transport,bus_stop,월림2리 임호(월림1리입구방면),36.30923841,128.3242408,,,,gumi_opendata_xlsx,687,gumi_opendata
transport,bus_stop,월림2리 한실(월림2리 임호방면),36.30897071,128.3332745,,,,gumi_opendata_xlsx,688,gumi_opendata
transport,bus_stop,월림2리 한실(신곡방면),36.30890429,128.3332766,,,,gumi_opendata_xlsx,689,gumi_opendata
transport,bus_stop,의우총입구건너,36.16299255,128.4633719,,,,gumi_opendata_xlsx,690,gumi_opendata
transport,bus_stop,의우총입구,36.16305964,128.4633856,,,,gumi_opendata_xlsx,691,gumi_opendata
transport,bus_stop,이마트(광평동노인회관방면),36.10981412,128.3663064,,,,gumi_opendata_xlsx,692,gumi_opendata
transport,bus_stop,이마트정문,36.10939493,128.3641636,,,,gumi_opendata_xlsx,693,gumi_opendata
transport,bus_stop,이문네거리,36.24051039,128.2960527,,,,gumi_opendata_xlsx,694,gumi_opendata
transport,bus_stop,이주단지(4공단입구방면),36.13653703,128.421135,,,,gumi_opendata_xlsx,695,gumi_opendata
transport,bus_stop,이주단지(양포동행정복지센터방면),36.13615706,128.4224388,,,,gumi_opendata_xlsx,696,gumi_opendata
transport,bus_stop,이편한세상아파트앞,36.13029971,128.3180923,,,,gumi_opendata_xlsx,697,gumi_opendata
transport,bus_stop,이편한세상아파트건너,36.13057083,128.3188207,,,,gumi_opendata_xlsx,698,gumi_opendata
transport,bus_stop,한국방송통신대학건너,36.12946587,128.3137475,,,,gumi_opendata_xlsx,699,gumi_opendata
transport,bus_stop,한국방송통신대학앞,36.1292993,128.3135175,,,,gumi_opendata_xlsx,700,gumi_opendata
transport,bus_stop,인동고등학교,36.09054839,128.4315202,,,,gumi_opendata_xlsx,701,gumi_opendata
transport,bus_stop,인동고등학교입구,36.0941413,128.433376,,,,gumi_opendata_xlsx,702,gumi_opendata
transport,bus_stop,인동고등학교입구건너,36.09448314,128.4333551,,,,gumi_opendata_xlsx,703,gumi_opendata
transport,bus_stop,인동사거리,36.10696454,128.4189842,,,,gumi_opendata_xlsx,704,gumi_opendata
transport,bus_stop,인동시립도서관,36.09846658,128.4242226,,,,gumi_opendata_xlsx,705,gumi_opendata
transport,bus_stop,인동시립도서관입구,36.09969915,128.4251262,,,,gumi_opendata_xlsx,706,gumi_opendata
transport,bus_stop,인동육교,36.10418885,128.4215008,,,,gumi_opendata_xlsx,707,gumi_opendata
transport,bus_stop,인동정류장(인동사거리방면),36.10810857,128.4222485,,,,gumi_opendata_xlsx,708,gumi_opendata
transport,bus_stop,인동정류장(인동중학교방면),36.10810664,128.4225408,,,,gumi_opendata_xlsx,709,gumi_opendata
transport,bus_stop,인동중학교건너,36.10877685,128.4254708,,,,gumi_opendata_xlsx,710,gumi_opendata
transport,bus_stop,인동중학교앞,36.10884636,128.4256927,,,,gumi_opendata_xlsx,711,gumi_opendata
transport,bus_stop,인동중학교입구,36.10796754,128.425692,,,,gumi_opendata_xlsx,712,gumi_opendata
transport,bus_stop,인의초등학교입구,36.09988159,128.4259608,,,,gumi_opendata_xlsx,713,gumi_opendata
transport,bus_stop,일선교(일선교정류장방면),36.27281363,128.3389492,,,,gumi_opendata_xlsx,714,gumi_opendata
transport,bus_stop,일선교(생곡리방면),36.27289999,128.3391917,,,,gumi_opendata_xlsx,715,gumi_opendata
transport,bus_stop,일선교정류장건너,36.2722249,128.3473558,,,,gumi_opendata_xlsx,716,gumi_opendata
transport,bus_stop,일선교정류장앞,36.27200547,128.347786,,,,gumi_opendata_xlsx,717,gumi_opendata
transport,bus_stop,축산물 유통센터,36.13008518,128.3091472,,,,gumi_opendata_xlsx,718,gumi_opendata
transport,bus_stop,일선리(칠창방면),36.26939846,128.349555,,,,gumi_opendata_xlsx,719,gumi_opendata
transport,bus_stop,일선리(일선교정류장방면),36.2694676,128.3496467,,,,gumi_opendata_xlsx,720,gumi_opendata
transport,bus_stop,임봉정류장(영진하이텍방면),36.14058382,128.4558672,,,,gumi_opendata_xlsx,721,gumi_opendata
transport,bus_stop,임봉정류장(임봉초등학교방면),36.14047314,128.4559213,,,,gumi_opendata_xlsx,722,gumi_opendata
transport,bus_stop,임봉초등학교앞,36.13936532,128.4590694,,,,gumi_opendata_xlsx,723,gumi_opendata
transport,bus_stop,임봉초등학교건너,36.13930113,128.4590804,,,,gumi_opendata_xlsx,724,gumi_opendata
transport,bus_stop,임은동(삼도뷰앤빌앞삼거리방면),36.08839316,128.3665683,,,,gumi_opendata_xlsx,725,gumi_opendata
transport,bus_stop,임은동(임오동행정복지센터건너방면),36.08824207,128.3666478,,,,gumi_opendata_xlsx,726,gumi_opendata
transport,bus_stop,임오동행정복지센터앞,36.08928535,128.3698798,,,,gumi_opendata_xlsx,727,gumi_opendata
transport,bus_stop,임오동행정복지센터건너,36.08892377,128.3693977,,,,gumi_opendata_xlsx,728,gumi_opendata
transport,bus_stop,임은동코오롱하늘채건너,36.08691503,128.3665051,,,,gumi_opendata_xlsx,729,gumi_opendata
transport,bus_stop,임은동코오롱하늘채앞,36.08665627,128.3654821,,,,gumi_opendata_xlsx,730,gumi_opendata
transport,bus_stop,임천리몽대,36.13817617,128.4660463,,,,gumi_opendata_xlsx,731,gumi_opendata
transport,bus_stop,임천리입구(의우총입구방면),36.16352235,128.4600133,,,,gumi_opendata_xlsx,732,gumi_opendata
transport,bus_stop,임천리입구(임봉초등학교방면),36.13902837,128.4621311,,,,gumi_opendata_xlsx,733,gumi_opendata
transport,bus_stop,임천리입구(송산리츠빌아파트방면),36.16363605,128.4597096,,,,gumi_opendata_xlsx,734,gumi_opendata
transport,bus_stop,임천리입구(임천리몽대방면),36.13894063,128.4622248,,,,gumi_opendata_xlsx,735,gumi_opendata
transport,bus_stop,임천리몽대건너,36.13808926,128.4661232,,,,gumi_opendata_xlsx,736,gumi_opendata
transport,bus_stop,임천부처방(임천리몽대방면),36.13642109,128.4744463,,,,gumi_opendata_xlsx,737,gumi_opendata
transport,bus_stop,임천부처방(하장리방면),36.13635746,128.4744586,,,,gumi_opendata_xlsx,738,gumi_opendata
transport,bus_stop,구미성리학역사관,36.1140771,128.3155601,,,,gumi_opendata_xlsx,739,gumi_opendata
transport,bus_stop,장천버스터미널 종점,36.12752838,128.4944128,,,,gumi_opendata_xlsx,740,gumi_opendata
transport,bus_stop,신평e편한세상아파트,36.12212555,128.3668432,,,,gumi_opendata_xlsx,741,gumi_opendata
transport,bus_stop,장흥리(송천4리입구건너방면),36.14452075,128.2939104,,,,gumi_opendata_xlsx,742,gumi_opendata
transport,bus_stop,장흥리(진주울입구방면),36.14445985,128.2938745,,,,gumi_opendata_xlsx,743,gumi_opendata
transport,bus_stop,적림구미마을,36.16706139,128.4258176,,,,gumi_opendata_xlsx,744,gumi_opendata
transport,bus_stop,적림리(산동버스정류장방면),36.16725613,128.4294341,,,,gumi_opendata_xlsx,745,gumi_opendata
transport,bus_stop,적림리(적림구미마을방면),36.16737942,128.4295417,,,,gumi_opendata_xlsx,746,gumi_opendata
transport,bus_stop,전자공고,36.11635363,128.4029338,,,,gumi_opendata_xlsx,747,gumi_opendata
transport,bus_stop,제이텍,36.09642042,128.3851945,,,,gumi_opendata_xlsx,748,gumi_opendata
transport,bus_stop,주공5단지앞,36.14050337,128.3179938,,,,gumi_opendata_xlsx,749,gumi_opendata
transport,bus_stop,주공5단지건너,36.1406777,128.3176516,,,,gumi_opendata_xlsx,750,gumi_opendata
transport,bus_stop,SK실트론1공장,36.11117266,128.4117341,,,,gumi_opendata_xlsx,751,gumi_opendata
transport,bus_stop,주아가라골,36.28698486,128.2677007,,,,gumi_opendata_xlsx,752,gumi_opendata
transport,bus_stop,죽장2리(죽장리마을회관방면),36.24400515,128.2687728,,,,gumi_opendata_xlsx,753,gumi_opendata
transport,bus_stop,죽장2리(봉곡방면),36.24421406,128.2689656,,,,gumi_opendata_xlsx,754,gumi_opendata
transport,bus_stop,중농소(하농소방면),36.29910962,128.2850083,,,,gumi_opendata_xlsx,755,gumi_opendata
transport,bus_stop,중농소(상농소방면),36.29906395,128.2847889,,,,gumi_opendata_xlsx,756,gumi_opendata
transport,bus_stop,경북경제진흥원건너,36.10542558,128.4027818,,,,gumi_opendata_xlsx,758,gumi_opendata
transport,bus_stop,지산1동(지산수우입구방면),36.13299187,128.345032,,,,gumi_opendata_xlsx,759,gumi_opendata
transport,bus_stop,지산1동(원평1동방면),36.13342819,128.3443039,,,,gumi_opendata_xlsx,760,gumi_opendata
transport,bus_stop,지산2동(지산새마을금고방면),36.14610351,128.3480001,,,,gumi_opendata_xlsx,761,gumi_opendata
transport,bus_stop,지산2동(문성새마을방면),36.1459049,128.3483499,,,,gumi_opendata_xlsx,762,gumi_opendata
transport,bus_stop,지산동행정복지센터앞,36.1386236,128.3459868,,,,gumi_opendata_xlsx,763,gumi_opendata
transport,bus_stop,지산동행정복지센터건너,36.1385959,128.3463777,,,,gumi_opendata_xlsx,764,gumi_opendata
transport,bus_stop,지산새마을금고앞,36.14420103,128.3473449,,,,gumi_opendata_xlsx,765,gumi_opendata
transport,bus_stop,지산새마을금고건너,36.14465209,128.3479074,,,,gumi_opendata_xlsx,766,gumi_opendata
transport,bus_stop,지산수우입구(지산1동방면),36.13595361,128.3453593,,,,gumi_opendata_xlsx,767,gumi_opendata
transport,bus_stop,지산수우입구(지산동행정복지센터방면),36.13600657,128.3457472,,,,gumi_opendata_xlsx,768,gumi_opendata
transport,bus_stop,직물협업단지(태광산업방면),36.10219624,128.3776931,,,,gumi_opendata_xlsx,769,gumi_opendata
transport,bus_stop,직물협업단지(순천향병원방면),36.10198048,128.3776317,,,,gumi_opendata_xlsx,770,gumi_opendata
transport,bus_stop,진미동행정복지센터앞,36.10588136,128.4188821,,,,gumi_opendata_xlsx,771,gumi_opendata
transport,bus_stop,진미동행정복지센터건너,36.10587721,128.4193304,,,,gumi_opendata_xlsx,772,gumi_opendata
transport,bus_stop,진주울입구(장흥리방면),36.14131902,128.3016804,,,,gumi_opendata_xlsx,773,gumi_opendata
transport,bus_stop,진주울입구(봉곡동입구방면),36.14125359,128.3016484,,,,gumi_opendata_xlsx,774,gumi_opendata
transport,bus_stop,인의푸르지오아파트,36.09652589,128.4328815,,,,gumi_opendata_xlsx,775,gumi_opendata
transport,bus_stop,진평동(인동시립도서관입구방면),36.10397376,128.421213,,,,gumi_opendata_xlsx,776,gumi_opendata
transport,bus_stop,진평동(서한아파트방면),36.10215694,128.4233451,,,,gumi_opendata_xlsx,777,gumi_opendata
transport,bus_stop,진평미래타운입구,36.09378344,128.4252631,,,,gumi_opendata_xlsx,778,gumi_opendata
transport,bus_stop,진평중학교입구,36.09694428,128.4282777,,,,gumi_opendata_xlsx,779,gumi_opendata
transport,bus_stop,진평중학교입구건너,36.09662104,128.4291659,,,,gumi_opendata_xlsx,780,gumi_opendata
transport,bus_stop,진평청구아파트,36.09897491,128.4294274,,,,gumi_opendata_xlsx,781,gumi_opendata
transport,bus_stop,진평초등학교,36.09177818,128.4279755,,,,gumi_opendata_xlsx,782,gumi_opendata
transport,bus_stop,칠창(낙산리방면),36.26294359,128.3492696,,,,gumi_opendata_xlsx,783,gumi_opendata
transport,bus_stop,칠창(일선리방면),36.26278769,128.3495079,,,,gumi_opendata_xlsx,784,gumi_opendata
transport,bus_stop,차병원건너,36.11493609,128.3402602,,,,gumi_opendata_xlsx,785,gumi_opendata
transport,bus_stop,차병원앞,36.11480976,128.3403246,,,,gumi_opendata_xlsx,786,gumi_opendata
transport,bus_stop,참테크앞,36.13801569,128.4472706,,,,gumi_opendata_xlsx,787,gumi_opendata
transport,bus_stop,참테크건너,36.13767019,128.44576,,,,gumi_opendata_xlsx,788,gumi_opendata
transport,bus_stop,청구아파트입구,36.0986684,128.4267924,,,,gumi_opendata_xlsx,789,gumi_opendata
transport,bus_stop,청솔아파트건너,36.16125858,128.3482366,,,,gumi_opendata_xlsx,790,gumi_opendata
transport,bus_stop,청솔아파트앞,36.16138991,128.3484025,,,,gumi_opendata_xlsx,791,gumi_opendata
transport,bus_stop,초곡(신풍진마을입구방면),36.2969642,128.3021988,,,,gumi_opendata_xlsx,792,gumi_opendata
transport,bus_stop,초곡(하농소방면),36.29708162,128.3021882,,,,gumi_opendata_xlsx,793,gumi_opendata
transport,bus_stop,가톨릭근로자문화센타,36.12327282,128.3378493,,,,gumi_opendata_xlsx,794,gumi_opendata
transport,bus_stop,KEC정문,36.11105703,128.3700712,,,,gumi_opendata_xlsx,795,gumi_opendata
transport,bus_stop,코오롱,36.11073995,128.3697752,,,,gumi_opendata_xlsx,796,gumi_opendata
transport,bus_stop,콜렉터신영건너,36.14091632,128.445286,,,,gumi_opendata_xlsx,797,gumi_opendata
transport,bus_stop,태광산업,36.09903962,128.3767277,,,,gumi_opendata_xlsx,798,gumi_opendata
transport,bus_stop,태봉1리(대원방면),36.28497161,128.2327195,,,,gumi_opendata_xlsx,799,gumi_opendata
transport,bus_stop,태봉1리(태봉리방면),36.28498768,128.2330489,,,,gumi_opendata_xlsx,800,gumi_opendata
transport,bus_stop,태봉리(태봉1리방면),36.29142371,128.2296662,,,,gumi_opendata_xlsx,801,gumi_opendata
transport,bus_stop,태봉리(산촌마을입구방면),36.29148799,128.2299153,,,,gumi_opendata_xlsx,802,gumi_opendata
transport,bus_stop,터미널네거리(오성예식장앞방면),36.12222128,128.3478662,,,,gumi_opendata_xlsx,803,gumi_opendata
transport,bus_stop,터미널네거리(송원고가밑방면),36.12230851,128.3482793,,,,gumi_opendata_xlsx,804,gumi_opendata
transport,bus_stop,파산리(고아신촌방면),36.20774651,128.3081372,,,,gumi_opendata_xlsx,805,gumi_opendata
transport,bus_stop,파산리(대망입구방면),36.20762283,128.3078823,,,,gumi_opendata_xlsx,806,gumi_opendata
transport,bus_stop,평생교육원건너,36.10623281,128.3854672,,,,gumi_opendata_xlsx,807,gumi_opendata
transport,bus_stop,평생교육원앞,36.1062245,128.385218,,,,gumi_opendata_xlsx,808,gumi_opendata
transport,bus_stop,포상1리,36.23982155,128.254073,,,,gumi_opendata_xlsx,809,gumi_opendata
transport,bus_stop,포상2리,36.23874487,128.2489145,,,,gumi_opendata_xlsx,810,gumi_opendata
transport,bus_stop,포상2리하송(웅곡리방면),36.25018827,128.238911,,,,gumi_opendata_xlsx,811,gumi_opendata
transport,bus_stop,포상2리하송(덕촌1리방면),36.25015785,128.2384827,,,,gumi_opendata_xlsx,812,gumi_opendata
transport,bus_stop,푸르지오캐슬A단지,36.12389806,128.3374574,,,,gumi_opendata_xlsx,813,gumi_opendata
transport,bus_stop,푸르지오캐슬B단지,36.12470868,128.3361004,,,,gumi_opendata_xlsx,814,gumi_opendata
transport,bus_stop,풍림2차건너,36.11171976,128.332306,,,,gumi_opendata_xlsx,815,gumi_opendata
transport,bus_stop,풍림2차앞,36.11167959,128.3324426,,,,gumi_opendata_xlsx,816,gumi_opendata
transport,bus_stop,프로템앞,36.08635258,128.3856445,,,,gumi_opendata_xlsx,817,gumi_opendata
transport,bus_stop,프로템건너,36.08586244,128.3853231,,,,gumi_opendata_xlsx,818,gumi_opendata
transport,bus_stop,하농소(초곡방면),36.30163588,128.2890637,,,,gumi_opendata_xlsx,819,gumi_opendata
transport,bus_stop,하농소(중농소방면),36.30185155,128.2898073,,,,gumi_opendata_xlsx,820,gumi_opendata
transport,bus_stop,하송(송천4리입구방면),36.15261364,128.2791683,,,,gumi_opendata_xlsx,821,gumi_opendata
transport,bus_stop,하우저만,36.11270803,128.4175344,,,,gumi_opendata_xlsx,822,gumi_opendata
transport,bus_stop,하장1리(장천버스터미널 종점방면),36.1313072,128.4937976,,,,gumi_opendata_xlsx,823,gumi_opendata
transport,bus_stop,하장1리(하장리앞방면),36.13109606,128.4941005,,,,gumi_opendata_xlsx,824,gumi_opendata
transport,bus_stop,하장3거리(젊은종합농기계앞),36.13729249,128.4910035,,,,gumi_opendata_xlsx,825,gumi_opendata
transport,bus_stop,하장3거리(묵어리방면),36.13687325,128.4913047,,,,gumi_opendata_xlsx,826,gumi_opendata
transport,bus_stop,하장3거리(하장1리방면),36.13688301,128.4911409,,,,gumi_opendata_xlsx,827,gumi_opendata
transport,bus_stop,하장리(하장3거리방면),36.13397481,128.483699,,,,gumi_opendata_xlsx,828,gumi_opendata
transport,bus_stop,하장리(하장교방면),36.13217184,128.4854763,,,,gumi_opendata_xlsx,829,gumi_opendata
transport,bus_stop,하장리앞,36.1321803,128.493587,,,,gumi_opendata_xlsx,830,gumi_opendata
transport,bus_stop,LG유니참앞,36.11108251,128.374568,,,,gumi_opendata_xlsx,831,gumi_opendata
transport,bus_stop,엘지PDP옆A,36.11022453,128.3821975,,,,gumi_opendata_xlsx,832,gumi_opendata
transport,bus_stop,KEC동편앞,36.11117437,128.3717959,,,,gumi_opendata_xlsx,833,gumi_opendata
transport,bus_stop,KEC동편건너,36.11125193,128.3721008,,,,gumi_opendata_xlsx,834,gumi_opendata
transport,bus_stop,TK케미칼2공장건너,36.09567444,128.3770209,,,,gumi_opendata_xlsx,835,gumi_opendata
transport,bus_stop,한빛타운건너,36.14141221,128.3230449,,,,gumi_opendata_xlsx,836,gumi_opendata
transport,bus_stop,한빛타운앞,36.14144712,128.3227141,,,,gumi_opendata_xlsx,837,gumi_opendata
transport,bus_stop,한신아파트후문,36.11830755,128.3518371,,,,gumi_opendata_xlsx,838,gumi_opendata
transport,bus_stop,한염앞,36.08999946,128.3731368,,,,gumi_opendata_xlsx,839,gumi_opendata
transport,bus_stop,한염건너,36.08960896,128.3731543,,,,gumi_opendata_xlsx,840,gumi_opendata
transport,bus_stop,항곡현일중고등학교건너,36.18828881,128.3477094,,,,gumi_opendata_xlsx,841,gumi_opendata
transport,bus_stop,항곡현일중고등학교앞,36.18859268,128.348104,,,,gumi_opendata_xlsx,842,gumi_opendata
transport,bus_stop,중흥S클래스앞,36.14018677,128.4289741,,,,gumi_opendata_xlsx,843,gumi_opendata
transport,bus_stop,해평농공단지건너,36.20624692,128.3893225,,,,gumi_opendata_xlsx,844,gumi_opendata
transport,bus_stop,해평농공단지앞,36.2063353,128.3895635,,,,gumi_opendata_xlsx,845,gumi_opendata
transport,bus_stop,해평도리사,36.24653586,128.4011957,,,,gumi_opendata_xlsx,846,gumi_opendata
transport,bus_stop,해평도리사출발,36.2466311,128.4011718,,,,gumi_opendata_xlsx,847,gumi_opendata
transport,bus_stop,해평버스정류장,36.19497153,128.3934443,,,,gumi_opendata_xlsx,848,gumi_opendata
transport,bus_stop,해평초등학교,36.20310523,128.3903992,,,,gumi_opendata_xlsx,849,gumi_opendata
transport,bus_stop,현대아파트건너,36.15135937,128.3168249,,,,gumi_opendata_xlsx,850,gumi_opendata
transport,bus_stop,현대아파트앞,36.15139384,128.3176005,,,,gumi_opendata_xlsx,851,gumi_opendata
transport,bus_stop,현진아파트앞,36.13828126,128.4261557,,,,gumi_opendata_xlsx,852,gumi_opendata
transport,bus_stop,현진아파트건너,36.13805015,128.4253909,,,,gumi_opendata_xlsx,853,gumi_opendata
transport,bus_stop,형곡4거리,36.11631556,128.3397857,,,,gumi_opendata_xlsx,854,gumi_opendata
transport,bus_stop,형곡4주공네거리(형곡초등학교방면),36.11287138,128.3389597,,,,gumi_opendata_xlsx,855,gumi_opendata
transport,bus_stop,형곡4주공네거리(차병원앞방면),36.11280649,128.3395159,,,,gumi_opendata_xlsx,856,gumi_opendata
transport,bus_stop,형곡금오산입구앞,36.10891024,128.332274,,,,gumi_opendata_xlsx,857,gumi_opendata
transport,bus_stop,형곡금오산입구건너,36.1089106,128.3324996,,,,gumi_opendata_xlsx,858,gumi_opendata
transport,bus_stop,시영아파트건너,36.10445976,128.3350051,,,,gumi_opendata_xlsx,859,gumi_opendata
transport,bus_stop,형곡중앙시장건너,36.10756762,128.3382372,,,,gumi_opendata_xlsx,860,gumi_opendata
transport,bus_stop,형곡중학교입구,36.1074208,128.3336803,,,,gumi_opendata_xlsx,861,gumi_opendata
transport,bus_stop,형곡중학교입구건너,36.1076616,128.333644,,,,gumi_opendata_xlsx,862,gumi_opendata
transport,bus_stop,형곡초등학교앞,36.10983168,128.3391615,,,,gumi_opendata_xlsx,863,gumi_opendata
transport,bus_stop,형곡초등학교건너,36.10978231,128.3393659,,,,gumi_opendata_xlsx,864,gumi_opendata
transport,bus_stop,형곡중앙시장앞,36.10704137,128.3375395,,,,gumi_opendata_xlsx,865,gumi_opendata
transport,bus_stop,형남중학교건너,36.10233772,128.3362133,,,,gumi_opendata_xlsx,866,gumi_opendata
transport,bus_stop,형남중학교앞,36.10381637,128.3359752,,,,gumi_opendata_xlsx,867,gumi_opendata
transport,bus_stop,홈플러스정문건너,36.10292617,128.3626937,,,,gumi_opendata_xlsx,869,gumi_opendata
transport,bus_stop,홈플러스정문앞,36.10293868,128.3630774,,,,gumi_opendata_xlsx,870,gumi_opendata
transport,bus_stop,화훼단지주유소앞,36.32306506,128.2772668,,,,gumi_opendata_xlsx,871,gumi_opendata
transport,bus_stop,화훼단지주유소건너,36.32294185,128.2774419,,,,gumi_opendata_xlsx,872,gumi_opendata
transport,bus_stop,황산,36.21310012,128.2901779,,,,gumi_opendata_xlsx,873,gumi_opendata
transport,bus_stop,황산출발,36.21293104,128.2905582,,,,gumi_opendata_xlsx,874,gumi_opendata
transport,bus_stop,황상1주공앞,36.11720776,128.4250549,,,,gumi_opendata_xlsx,875,gumi_opendata
transport,bus_stop,황상1주공건너,36.11690724,128.4252035,,,,gumi_opendata_xlsx,876,gumi_opendata
transport,bus_stop,황상2주공앞,36.11778041,128.4262964,,,,gumi_opendata_xlsx,877,gumi_opendata
transport,bus_stop,황상2주공건너,36.11770127,128.4269911,,,,gumi_opendata_xlsx,878,gumi_opendata
transport,bus_stop,황상동입구(인동중학교방면),36.11030409,128.4254186,,,,gumi_opendata_xlsx,879,gumi_opendata
transport,bus_stop,황상동입구(황상현대아파트방면),36.11041644,128.4256459,,,,gumi_opendata_xlsx,880,gumi_opendata
transport,bus_stop,황상신화아파트앞,36.11084456,128.4215948,,,,gumi_opendata_xlsx,881,gumi_opendata
transport,bus_stop,황상신화아파트건너,36.11048456,128.4220776,,,,gumi_opendata_xlsx,882,gumi_opendata
transport,bus_stop,황상종점,36.11817356,128.4287638,,,,gumi_opendata_xlsx,883,gumi_opendata
transport,bus_stop,황상종점 출발점,36.11839792,128.4282705,,,,gumi_opendata_xlsx,884,gumi_opendata
transport,bus_stop,황상주공복합상가,36.11521138,128.4245529,,,,gumi_opendata_xlsx,885,gumi_opendata
transport,bus_stop,황상주공복합상가건너,36.11535604,128.4249079,,,,gumi_opendata_xlsx,886,gumi_opendata
transport,bus_stop,황상중앙시장입구건너,36.11331961,128.4246568,,,,gumi_opendata_xlsx,887,gumi_opendata
transport,bus_stop,황상중앙시장입구,36.113235,128.4247959,,,,gumi_opendata_xlsx,888,gumi_opendata
transport,bus_stop,황상현대아파트앞,36.11085496,128.4236464,,,,gumi_opendata_xlsx,889,gumi_opendata
transport,bus_stop,횡산,36.20099807,128.2646208,,,,gumi_opendata_xlsx,891,gumi_opendata
transport,bus_stop,횡산도롱골,36.19567117,128.2838549,,,,gumi_opendata_xlsx,892,gumi_opendata
transport,bus_stop,횡산리 대방골,36.19392319,128.2850453,,,,gumi_opendata_xlsx,893,gumi_opendata
transport,bus_stop,횡산입구(내예리방면),36.19825645,128.2844331,,,,gumi_opendata_xlsx,894,gumi_opendata
transport,bus_stop,횡산입구건너,36.19797918,128.2841832,,,,gumi_opendata_xlsx,895,gumi_opendata
transport,bus_stop,횡산입구(고아신촌방면),36.19810569,128.2839891,,,,gumi_opendata_xlsx,896,gumi_opendata
transport,bus_stop,효성,36.09150301,128.4064631,,,,gumi_opendata_xlsx,897,gumi_opendata
transport,bus_stop,효성티앤에스건너,36.12423358,128.4104658,,,,gumi_opendata_xlsx,898,gumi_opendata
transport,bus_stop,(주)효성건너,36.09151104,128.4060855,,,,gumi_opendata_xlsx,899,gumi_opendata
transport,bus_stop,AST앞,36.14028959,128.4482348,,,,gumi_opendata_xlsx,900,gumi_opendata
transport,bus_stop,원평동 행정복지센터 건너,36.12604377,128.3378738,,,,gumi_opendata_xlsx,901,gumi_opendata
transport,bus_stop,KMC,36.08422549,128.4108054,,,,gumi_opendata_xlsx,902,gumi_opendata
transport,bus_stop,KT구미전화국건너,36.11925519,128.3425943,,,,gumi_opendata_xlsx,903,gumi_opendata
transport,bus_stop,KT구미전화국앞,36.11866781,128.3428791,,,,gumi_opendata_xlsx,904,gumi_opendata
transport,bus_stop,LS전선건너,36.11107825,128.3885097,,,,gumi_opendata_xlsx,905,gumi_opendata
transport,bus_stop,부광상가,36.09847811,128.3852568,,,,gumi_opendata_xlsx,906,gumi_opendata
transport,bus_stop,LG전자건너,36.08873093,128.3856606,,,,gumi_opendata_xlsx,907,gumi_opendata
transport,bus_stop,LG전자앞,36.08871388,128.3852422,,,,gumi_opendata_xlsx,908,gumi_opendata
transport,bus_stop,LG정보통신,36.1300139,128.3318229,,,,gumi_opendata_xlsx,909,gumi_opendata
transport,bus_stop,LS전선,36.11076285,128.3879817,,,,gumi_opendata_xlsx,910,gumi_opendata
transport,bus_stop,하장리(임천부처방방면),36.134072,128.483693,,,,gumi_opendata_xlsx,911,gumi_opendata
transport,bus_stop,선산고입구건너,36.246087,128.297725,,,,gumi_opendata_xlsx,912,gumi_opendata
transport,bus_stop,선산고입구,36.246087,128.297325,,,,gumi_opendata_xlsx,913,gumi_opendata
transport,bus_stop,청소년수련관앞,36.25990911,128.2899271,,,,gumi_opendata_xlsx,914,gumi_opendata
transport,bus_stop,청소년수련관건너,36.25990911,128.2898421,,,,gumi_opendata_xlsx,915,gumi_opendata
transport,bus_stop,구미보,36.23145796,128.3543563,,,,gumi_opendata_xlsx,916,gumi_opendata
transport,bus_stop,구미보건너,36.23160259,128.3544527,,,,gumi_opendata_xlsx,917,gumi_opendata
transport,bus_stop,선기동교복단지앞,36.13669802,128.3125653,,,,gumi_opendata_xlsx,918,gumi_opendata
transport,bus_stop,선기동교복단지건너,36.13709824,128.3124331,,,,gumi_opendata_xlsx,919,gumi_opendata
transport,bus_stop,금호2리(해평농공단지방면),36.21189551,128.3862853,,,,gumi_opendata_xlsx,920,gumi_opendata
transport,bus_stop,금호2리(금오1리방면),36.21205621,128.386446,,,,gumi_opendata_xlsx,921,gumi_opendata
transport,bus_stop,송산리츠빌아파트앞(선산컨트리클럽방면),36.16540645,128.4537813,,,,gumi_opendata_xlsx,922,gumi_opendata
transport,bus_stop,송산리츠빌아파트건너(임천리입구방면),36.16526348,128.4537548,,,,gumi_opendata_xlsx,923,gumi_opendata
transport,bus_stop,유환원룸앞,36.159835,128.474929,,,,gumi_opendata_xlsx,924,gumi_opendata
transport,bus_stop,유환원룸건너,36.16003323,128.474988,,,,gumi_opendata_xlsx,925,gumi_opendata
transport,bus_stop,태극마을(금오공대입구방면),36.13144989,128.3917305,,,,gumi_opendata_xlsx,926,gumi_opendata
transport,bus_stop,태극마을(양호동종점방면),36.13157042,128.3916421,,,,gumi_opendata_xlsx,927,gumi_opendata
transport,bus_stop,죽장리마을회관(선산터미널종점방면),36.24186785,128.273883,,,,gumi_opendata_xlsx,928,gumi_opendata
transport,bus_stop,죽장리마을회관(죽장2리방면),36.24214907,128.2738268,,,,gumi_opendata_xlsx,929,gumi_opendata
transport,bus_stop,이마트건너,36.10943891,128.3637766,,,,gumi_opendata_xlsx,930,gumi_opendata
transport,bus_stop,옥계우미린아파트정문,36.14317906,128.4263384,,,,gumi_opendata_xlsx,931,gumi_opendata
transport,bus_stop,옥계휴먼시아A,36.14222095,128.4240232,,,,gumi_opendata_xlsx,932,gumi_opendata
transport,bus_stop,환경자원화시설입구,36.19225181,128.4703647,,,,gumi_opendata_xlsx,933,gumi_opendata
transport,bus_stop,환경자원화시설,36.18735046,128.4769373,,,,gumi_opendata_xlsx,934,gumi_opendata
transport,bus_stop,구평휴먼시아,36.09144317,128.4467747,,,,gumi_opendata_xlsx,935,gumi_opendata
transport,bus_stop,남구미대교1(대교광장방면),36.08290361,128.399729,,,,gumi_opendata_xlsx,936,gumi_opendata
transport,bus_stop,남구미대교(팜한농방면),36.08344196,128.3997049,,,,gumi_opendata_xlsx,937,gumi_opendata
transport,bus_stop,우정사업조달사무소앞,36.12400454,128.1813066,,,,gumi_opendata_xlsx,940,gumi_opendata
transport,bus_stop,우정사업조달사무소건너,36.12394026,128.1809772,,,,gumi_opendata_xlsx,941,gumi_opendata
transport,bus_stop,근로자문화센터주차장입구,36.1354399,128.4292036,,,,gumi_opendata_xlsx,942,gumi_opendata
transport,bus_stop,제이에스,36.13225992,128.4365783,,,,gumi_opendata_xlsx,943,gumi_opendata
transport,bus_stop,성호철강,36.13264122,128.4461325,,,,gumi_opendata_xlsx,944,gumi_opendata
transport,bus_stop,한욱테크노글라스,36.13641061,128.4465247,,,,gumi_opendata_xlsx,945,gumi_opendata
transport,bus_stop,도레이첨단소재북문,36.13669386,128.4411321,,,,gumi_opendata_xlsx,946,gumi_opendata
transport,bus_stop,금오공업고등학교건너,36.11731837,128.3660386,,,,gumi_opendata_xlsx,947,gumi_opendata
transport,bus_stop,웅진케미칼,36.09645035,128.3624202,,,,gumi_opendata_xlsx,948,gumi_opendata
transport,bus_stop,웅진케미칼사원아파트,36.09002457,128.3618689,,,,gumi_opendata_xlsx,949,gumi_opendata
transport,bus_stop,기성엔지니어링,36.09283433,128.3798262,,,,gumi_opendata_xlsx,950,gumi_opendata
transport,bus_stop,정우엔지니어링,36.0929112,128.3891836,,,,gumi_opendata_xlsx,951,gumi_opendata
transport,bus_stop,(주)대송텍,36.09725358,128.3864309,,,,gumi_opendata_xlsx,952,gumi_opendata
transport,bus_stop,농심건너,36.10710447,128.3783959,,,,gumi_opendata_xlsx,953,gumi_opendata
transport,bus_stop,윈바이오젠,36.10713661,128.3758569,,,,gumi_opendata_xlsx,954,gumi_opendata
transport,bus_stop,오성가스충전소,36.11050505,128.3755121,,,,gumi_opendata_xlsx,955,gumi_opendata
transport,bus_stop,(주)KTG,36.11548666,128.3743123,,,,gumi_opendata_xlsx,956,gumi_opendata
transport,bus_stop,LG이노텍공장앞,36.11544169,128.3783306,,,,gumi_opendata_xlsx,957,gumi_opendata
transport,bus_stop,비산동행정복지센터앞,36.1194519,128.3721585,,,,gumi_opendata_xlsx,958,gumi_opendata
transport,bus_stop,인동동행정복지센터,36.104444,128.4289623,,,,gumi_opendata_xlsx,959,gumi_opendata
transport,bus_stop,호반베르디움아파트정문,36.14341602,128.427919,,,,gumi_opendata_xlsx,960,gumi_opendata
transport,bus_stop,옥계휴먼시아건너,36.14226215,128.4238708,,,,gumi_opendata_xlsx,961,gumi_opendata
transport,bus_stop,주광정밀건너,36.09748567,128.3822203,,,,gumi_opendata_xlsx,962,gumi_opendata
transport,bus_stop,주광정밀앞,36.09726873,128.3822363,,,,gumi_opendata_xlsx,963,gumi_opendata
transport,bus_stop,하나로텍건너,36.09748567,128.3837469,,,,gumi_opendata_xlsx,964,gumi_opendata
transport,bus_stop,하나로텍앞,36.09726069,128.383763,,,,gumi_opendata_xlsx,965,gumi_opendata
transport,bus_stop,에스디원건너,36.08641454,128.382085,,,,gumi_opendata_xlsx,966,gumi_opendata
transport,bus_stop,에스디원앞,36.08639043,128.3818921,,,,gumi_opendata_xlsx,967,gumi_opendata
transport,bus_stop,제일모직건너,36.09153283,128.3706994,,,,gumi_opendata_xlsx,968,gumi_opendata
transport,bus_stop,제일모직앞,36.09154086,128.3704182,,,,gumi_opendata_xlsx,969,gumi_opendata
transport,bus_stop,도레이첨단소재건너,36.09795279,128.3705226,,,,gumi_opendata_xlsx,970,gumi_opendata
transport,bus_stop,도레이첨단소재앞,36.09792868,128.3702816,,,,gumi_opendata_xlsx,971,gumi_opendata
transport,bus_stop,태평양금속,36.09264166,128.3891076,,,,gumi_opendata_xlsx,973,gumi_opendata
transport,bus_stop,백셀,36.09749279,128.3864408,,,,gumi_opendata_xlsx,974,gumi_opendata
transport,bus_stop,LG디스플레이사원A앞,36.09748189,128.3833577,,,,gumi_opendata_xlsx,975,gumi_opendata
transport,bus_stop,LG디스플레이사원A건너,36.09730214,128.3833577,,,,gumi_opendata_xlsx,976,gumi_opendata
transport,bus_stop,두원테크건너,36.09906155,128.382094,,,,gumi_opendata_xlsx,977,gumi_opendata
transport,bus_stop,육일씨엔에스건너,36.148704,128.43065,,,,gumi_opendata_xlsx,978,gumi_opendata
transport,bus_stop,육일씨엔에스앞,36.148626,128.431013,,,,gumi_opendata_xlsx,979,gumi_opendata
transport,bus_stop,동구미이마트앞,36.10569195,128.4041172,,,,gumi_opendata_xlsx,980,gumi_opendata
transport,bus_stop,동구미이마트건너,36.10548182,128.405586,,,,gumi_opendata_xlsx,981,gumi_opendata
transport,bus_stop,갑을병원앞,36.10737316,128.4024404,,,,gumi_opendata_xlsx,982,gumi_opendata
transport,bus_stop,갑을병원건너,36.10739726,128.4021753,,,,gumi_opendata_xlsx,983,gumi_opendata
transport,bus_stop,도레이첨단소재정문,36.10735709,128.4103629,,,,gumi_opendata_xlsx,984,gumi_opendata
transport,bus_stop,엘지디스플레이정문앞,36.10067197,128.4063133,,,,gumi_opendata_xlsx,985,gumi_opendata
transport,bus_stop,엘지디스플레이정문건너,36.10067197,128.4060803,,,,gumi_opendata_xlsx,986,gumi_opendata
transport,bus_stop,진성,36.15117573,128.4360778,,,,gumi_opendata_xlsx,987,gumi_opendata
transport,bus_stop,진성건너,36.15095075,128.4360698,,,,gumi_opendata_xlsx,988,gumi_opendata
transport,bus_stop,우진E&P건너,36.15079809,128.4389785,,,,gumi_opendata_xlsx,989,gumi_opendata
transport,bus_stop,우진E&P앞,36.15078202,128.4391874,,,,gumi_opendata_xlsx,990,gumi_opendata
transport,bus_stop,(주)케이엠텍앞,36.1430314,128.4485986,,,,gumi_opendata_xlsx,991,gumi_opendata
transport,bus_stop,(주)케이엠텍건너,36.14333673,128.4486147,,,,gumi_opendata_xlsx,992,gumi_opendata
transport,bus_stop,톱텍앞,36.14308765,128.453958,,,,gumi_opendata_xlsx,993,gumi_opendata
transport,bus_stop,톱텍건너,36.14332066,128.4539499,,,,gumi_opendata_xlsx,994,gumi_opendata
transport,bus_stop,비산동행정복지센터건너,36.11965872,128.3721228,,,,gumi_opendata_xlsx,995,gumi_opendata
transport,bus_stop,LG이노텍공장건너,36.11523793,128.378296,,,,gumi_opendata_xlsx,996,gumi_opendata
transport,bus_stop,근로자문화센터,36.1352455,128.4289852,,,,gumi_opendata_xlsx,997,gumi_opendata
transport,bus_stop,오태1동입구,36.07993727,128.3777849,,,,gumi_opendata_xlsx,998,gumi_opendata
transport,bus_stop,원1리,36.24484582,128.2053716,,,,gumi_opendata_xlsx,999,gumi_opendata
transport,bus_stop,무수2리,36.26961079,128.1933564,,,,gumi_opendata_xlsx,1000,gumi_opendata
transport,bus_stop,무수1리,36.27652861,128.1925835,,,,gumi_opendata_xlsx,1001,gumi_opendata
transport,bus_stop,농협파머스마켓앞,36.12214043,128.3545034,,,,gumi_opendata_xlsx,1002,gumi_opendata
transport,bus_stop,옥계이편한세상APT건너,36.14039403,128.4375469,,,,gumi_opendata_xlsx,1003,gumi_opendata
transport,bus_stop,용포분교,36.32951171,128.2138544,,,,gumi_opendata_xlsx,1004,gumi_opendata
transport,bus_stop,창림리,36.22894577,128.3971646,,,,gumi_opendata_xlsx,1005,gumi_opendata
transport,bus_stop,봉죽사앞,36.10545175,128.3572006,,,,gumi_opendata_xlsx,1006,gumi_opendata
transport,bus_stop,봉죽사건너,36.10551922,128.3575131,,,,gumi_opendata_xlsx,1007,gumi_opendata
transport,bus_stop,농심앞,36.107412,128.378974,,,,gumi_opendata_xlsx,1008,gumi_opendata
transport,bus_stop,(주)KTG건너,36.1152299,128.3743106,,,,gumi_opendata_xlsx,1009,gumi_opendata
transport,bus_stop,백현1리,36.21466335,128.4683165,,,,gumi_opendata_xlsx,1010,gumi_opendata
transport,bus_stop,선주원남동행정복지센터앞,36.14328049,128.3100272,,,,gumi_opendata_xlsx,1011,gumi_opendata
transport,bus_stop,경구고등학교건너,36.14769859,128.3105635,,,,gumi_opendata_xlsx,1012,gumi_opendata
transport,bus_stop,경구고등학교앞,36.14765549,128.3102135,,,,gumi_opendata_xlsx,1013,gumi_opendata
transport,bus_stop,선주원남동행정복지센터건너,36.14307158,128.3097219,,,,gumi_opendata_xlsx,1014,gumi_opendata
transport,bus_stop,대원2리,36.27090499,128.2440835,,,,gumi_opendata_xlsx,1015,gumi_opendata
transport,bus_stop,구미코건너,36.14059177,128.4420335,,,,gumi_opendata_xlsx,1016,gumi_opendata
transport,bus_stop,구미코앞,36.14100575,128.4422348,,,,gumi_opendata_xlsx,1017,gumi_opendata
transport,bus_stop,전자정보기술원(청년창업랩)건너,36.14026248,128.4392176,,,,gumi_opendata_xlsx,1018,gumi_opendata
transport,bus_stop,형곡네거리,36.11679033,128.3387627,,,,gumi_opendata_xlsx,1019,gumi_opendata
transport,bus_stop,수다사,36.27610613,128.1637586,,,,gumi_opendata_xlsx,1020,gumi_opendata
transport,bus_stop,신동마을회관,36.09836428,128.4633015,,,,gumi_opendata_xlsx,1021,gumi_opendata
transport,bus_stop,대평마을,36.13831278,128.3664105,,,,gumi_opendata_xlsx,1022,gumi_opendata
transport,bus_stop,봉곡도서관입구,36.15259139,128.3067926,,,,gumi_opendata_xlsx,1023,gumi_opendata
transport,bus_stop,봉곡도서관입구건너,36.15306529,128.3065664,,,,gumi_opendata_xlsx,1024,gumi_opendata
transport,bus_stop,휘닉스소재앞,36.14096455,128.4475765,,,,gumi_opendata_xlsx,1025,gumi_opendata
transport,bus_stop,휘닉스소재건너,36.1406384,128.4474659,,,,gumi_opendata_xlsx,1026,gumi_opendata
transport,bus_stop,도로공사도성관앞,36.15185382,128.3150812,,,,gumi_opendata_xlsx,1027,gumi_opendata
transport,bus_stop,도로공사도성관건너,36.15275374,128.3147437,,,,gumi_opendata_xlsx,1028,gumi_opendata
transport,bus_stop,아사히글라스앞,36.14651396,128.4481746,,,,gumi_opendata_xlsx,1029,gumi_opendata
transport,bus_stop,중흥S클래스건너,36.1398114,128.4287268,,,,gumi_opendata_xlsx,1030,gumi_opendata
transport,bus_stop,미소지움아파트앞,36.1344027,128.3238455,,,,gumi_opendata_xlsx,1031,gumi_opendata
transport,bus_stop,미소지움아파트건너,36.13443409,128.3235922,,,,gumi_opendata_xlsx,1032,gumi_opendata
transport,bus_stop,교리e편한세상A앞,36.250966,128.304985,,,,gumi_opendata_xlsx,1033,gumi_opendata
transport,bus_stop,교리e편한세상A건너,36.250891,128.305038,,,,gumi_opendata_xlsx,1034,gumi_opendata
transport,bus_stop,구미대학교안,36.15103231,128.2894222,,,,gumi_opendata_xlsx,1035,gumi_opendata
transport,bus_stop,교리e편한세상(고아방면),36.2506763,128.3060427,,,,gumi_opendata_xlsx,1037,gumi_opendata
transport,bus_stop,교리e편한세상(생곡리방면),36.25021027,128.3061793,,,,gumi_opendata_xlsx,1038,gumi_opendata
transport,bus_stop,우미린센트럴파크앞,36.16022054,128.4345578,,,,gumi_opendata_xlsx,1040,gumi_opendata
transport,bus_stop,지산네거리,36.13210382,128.3387282,,,,gumi_opendata_xlsx,1042,gumi_opendata
transport,bus_stop,도레이첨단소재1공장,36.10567608,128.4071056,,,,gumi_opendata_xlsx,1043,gumi_opendata
transport,bus_stop,원호전원마을,36.162391,128.323381,,,,gumi_opendata_xlsx,1044,gumi_opendata
transport,bus_stop,원호전원마을,36.16243276,128.3235622,,,,gumi_opendata_xlsx,1045,gumi_opendata
transport,bus_stop,TK케미칼2공장앞,36.09552854,128.3767523,,,,gumi_opendata_xlsx,1046,gumi_opendata
transport,bus_stop,우미린풀하우스정문,36.1613464,128.4360666,,,,gumi_opendata_xlsx,1047,gumi_opendata
transport,bus_stop,문성2지구,36.15344592,128.3455025,,,,gumi_opendata_xlsx,1048,gumi_opendata
transport,bus_stop,인덕중흥S클래스건너,36.16386614,128.4424197,,,,gumi_opendata_xlsx,1049,gumi_opendata
transport,bus_stop,인덕중흥S클래스앞,36.16403487,128.4422349,,,,gumi_opendata_xlsx,1050,gumi_opendata
transport,bus_stop,우미린센트럴파크건너,36.16005914,128.434883,,,,gumi_opendata_xlsx,1051,gumi_opendata
transport,bus_stop,우미린풀하우스건너,36.16100148,128.4361794,,,,gumi_opendata_xlsx,1052,gumi_opendata
transport,bus_stop,태왕아너스아파트,36.16241508,128.3512586,,,,gumi_opendata_xlsx,1053,gumi_opendata
transport,bus_stop,사곡초등학교,36.09934516,128.359121,,,,gumi_opendata_xlsx,1055,gumi_opendata
transport,bus_stop,사곡초등학교건너,36.09921445,128.3589212,,,,gumi_opendata_xlsx,1056,gumi_opendata
transport,bus_stop,4공단하수종말처리장,36.1334064,128.4479718,,,,gumi_opendata_xlsx,1058,gumi_opendata
transport,bus_stop,산동파출소건너,36.16895677,128.4349193,,,,gumi_opendata_xlsx,1059,gumi_opendata
transport,bus_stop,산동파출소앞,36.16921389,128.4348228,,,,gumi_opendata_xlsx,1060,gumi_opendata
transport,bus_stop,산동농협경제사업소건너,36.16851328,128.4356517,,,,gumi_opendata_xlsx,1061,gumi_opendata
transport,bus_stop,산동농협경제사업소앞,36.16795552,128.4356707,,,,gumi_opendata_xlsx,1062,gumi_opendata
transport,bus_stop,산동농공단지입구,36.16941028,128.4364819,,,,gumi_opendata_xlsx,1063,gumi_opendata
transport,bus_stop,산동농공단지입구,36.16935435,128.4366186,,,,gumi_opendata_xlsx,1064,gumi_opendata
transport,bus_stop,물내음 공원입구,36.15481947,128.4280336,,,,gumi_opendata_xlsx,1065,gumi_opendata
transport,bus_stop,물내음 공원입구건너,36.15472305,128.4283149,,,,gumi_opendata_xlsx,1066,gumi_opendata
transport,bus_stop,골드클래스건너,36.1573987,128.4280015,,,,gumi_opendata_xlsx,1067,gumi_opendata
transport,bus_stop,골드클래스앞,36.15738263,128.4282666,,,,gumi_opendata_xlsx,1068,gumi_opendata
transport,bus_stop,우미린센트럴파크 후문건너,36.16133747,128.4321,,,,gumi_opendata_xlsx,1069,gumi_opendata
transport,bus_stop,우미린센트럴파크 후문,36.16106566,128.4311596,,,,gumi_opendata_xlsx,1070,gumi_opendata
transport,bus_stop,중흥S클래스에코시티,36.1613464,128.4389753,,,,gumi_opendata_xlsx,1071,gumi_opendata
transport,bus_stop,강변코오롱하늘채앞,36.1239579,128.3747958,,,,gumi_opendata_xlsx,1072,gumi_opendata
transport,bus_stop,강변코오롱하늘채건너,36.12413467,128.3747556,,,,gumi_opendata_xlsx,1073,gumi_opendata
transport,bus_stop,송림,36.16782517,128.3642034,,,,gumi_opendata_xlsx,1074,gumi_opendata
transport,bus_stop,구미대학교정문1,36.14859506,128.2896742,,,,gumi_opendata_xlsx,1075,gumi_opendata
transport,bus_stop,구미대학교정문,36.14853078,128.2899232,,,,gumi_opendata_xlsx,1076,gumi_opendata
transport,bus_stop,하장리,36.13213823,128.4853468,,,,gumi_opendata_xlsx,1077,gumi_opendata
transport,bus_stop,궁기1리 웃장터(신곡방면),36.304634,128.3287754,,,,gumi_opendata_xlsx,1078,gumi_opendata
transport,bus_stop,웃장터(도개정류장행),36.30484644,128.3283723,,,,gumi_opendata_xlsx,1079,gumi_opendata
transport,bus_stop,궁기2리 농바우(신곡방면),36.31064422,128.3365428,,,,gumi_opendata_xlsx,1080,gumi_opendata
transport,bus_stop,궁기2리 농바우(임호방면),36.31077495,128.3365374,,,,gumi_opendata_xlsx,1081,gumi_opendata
transport,bus_stop,월림2리 야가실(동산리방면),36.31212487,128.321911,,,,gumi_opendata_xlsx,1082,gumi_opendata
transport,bus_stop,월림2리 야가실(도개정류장방면),36.31216863,128.3216676,,,,gumi_opendata_xlsx,1083,gumi_opendata
transport,bus_stop,용산리 새마(용산2리 마을회관방면),36.33784625,128.2951021,,,,gumi_opendata_xlsx,1084,gumi_opendata
transport,bus_stop,용산리 새마(가산리방면),36.33798788,128.2949441,,,,gumi_opendata_xlsx,1085,gumi_opendata
transport,bus_stop,가산2리 원흥,36.320142,128.2961724,,,,gumi_opendata_xlsx,1086,gumi_opendata
transport,bus_stop,신림리 섬마(다곡리 방면),36.28364513,128.3642489,,,,gumi_opendata_xlsx,1087,gumi_opendata
transport,bus_stop,신림리 섬마(일선교정류장방면),36.28380854,128.3642489,,,,gumi_opendata_xlsx,1088,gumi_opendata
transport,bus_stop,도개리,36.28748118,128.3569917,,,,gumi_opendata_xlsx,1089,gumi_opendata
transport,bus_stop,신림리 새마(일선교정류장방면),36.28331102,128.3565177,,,,gumi_opendata_xlsx,1090,gumi_opendata
transport,bus_stop,신림리 새마(다곡리 방면),36.28306997,128.35659,,,,gumi_opendata_xlsx,1091,gumi_opendata
